latitude,longitude,place_name,country_code,timezone
27.85,112.9,Xiangtan,CN,Asia/Shanghai
44.22639,22.53083,Negotin,RS,Europe/Belgrade
37.05944,37.3825,Gaziantep,TR,Europe/Istanbul
32.42067,-104.22884,Carlsbad,US,America/Denver
55.82737,-4.0573,Viewpark,GB,Europe/London
52.86147,9.5926,Walsrode,DE,Europe/Berlin
36.19278,117.65694,Laiwu,CN,Asia/Shanghai
35.85,117.7,Dongdu,CN,Asia/Shanghai
42.819,47.1192,Buynaksk,RU,Europe/Moscow
42.8334,-80.38297,Norfolk County,CA,America/Toronto
-31.4488,-60.93173,Esperanza,AR,America/Argentina/Cordoba
43.1122,12.38878,Perugia,IT,Europe/Rome
48.8449,17.22635,Skalica,SK,Europe/Bratislava
36.61954,4.08282,Beni Douala,DZ,Africa/Algiers
-37.88333,145.06667,Carnegie,AU,Australia/Melbourne
35.25064,-91.73625,Searcy,US,America/Chicago
40.65995,-111.99633,Kearns,US,America/Denver
57.97472,33.2525,Valday,RU,Europe/Moscow
55.63711,37.38115,Solntsevo,RU,Europe/Moscow
20.28527,-103.42897,Jocotepec,MX,America/Mexico_City
44.97639,19.61222,Sremska Mitrovica,RS,Europe/Belgrade
35.64889,117.27583,Sishui,CN,Asia/Shanghai
-7.01833,107.60389,Pameungpeuk,ID,Asia/Jakarta
29.65163,-82.32483,Gainesville,US,America/New_York
26.76628,83.36889,Gorakhpur,IN,Asia/Kolkata
41.94175,123.50266,Hushitai,CN,Asia/Shanghai
17.06542,-96.72365,Oaxaca,MX,America/Mexico_City
7.06273,-1.4001,Mampong,GH,Africa/Accra
31.28092,74.85849,Patti,IN,Asia/Kolkata
57.97472,33.2525,Valday,RU,Europe/Moscow
18.87813,72.93924,Uran,IN,Asia/Kolkata
46.08333,122.08333,Ulanhot,CN,Asia/Shanghai
46.23899,-63.13414,Charlottetown,CA,America/Halifax
30.16688,-96.39774,Brenham,US,America/Chicago
45.16024,-93.08883,Lino Lakes,US,America/Chicago
42.93369,-72.27814,Keene,US,America/New_York
36,139.55722,Okegawa,JP,Asia/Tokyo
42,21.32778,Saraj,MK,Europe/Skopje
-27.50578,153.10236,Carindale,AU,Australia/Brisbane
53.59337,9.47629,Stade,DE,Europe/Berlin
45.9836,12.70038,Cordenons,IT,Europe/Rome
40.11583,67.84222,Jizzax,UZ,Asia/Samarkand
10.22677,-67.33122,La Victoria,VE,America/Caracas
28.54944,-81.77285,Clermont,US,America/New_York
47.76232,-122.2054,Bothell,US,America/Los_Angeles
4.88441,101.96857,Gua Musang,MY,Asia/Kuala_Lumpur
37.49223,15.07041,Catania,IT,Europe/Rome
-21.15,46.58333,Ikalamavony,MG,Indian/Antananarivo
51.14942,15.00835,Zgorzelec,PL,Europe/Warsaw
-7.0981,109.3243,Randudongkal,ID,Asia/Jakarta
-44.39672,171.25364,Timaru,NZ,Pacific/Auckland
33.44872,-86.78777,Vestavia Hills,US,America/Chicago
8.88988,-79.62603,Veracruz,PA,America/Panama
39.45621,-77.96389,Martinsburg,US,America/New_York
42.4251,-71.06616,Malden,US,America/New_York
41.9001,-71.08977,Taunton,US,America/New_York
-10.91722,-37.65,Lagarto,BR,America/Maceio
43.50891,16.43915,Split,HR,Europe/Zagreb
57.97472,33.2525,Valday,RU,Europe/Moscow
-28.24,-48.67028,Imbituba,BR,America/Sao_Paulo
51.78771,56.36091,Saraktash,RU,Asia/Yekaterinburg
44.43579,26.01649,Sector 6,RO,Europe/Bucharest
23.18,88.58,Aistala,IN,Asia/Kolkata
41.16704,-73.20483,Bridgeport,US,America/New_York
40.66482,122.22833,Yingkou,CN,Asia/Shanghai
6.95194,121.96361,Recodo,PH,Asia/Manila
5.27247,-3.59625,Bonoua,CI,Africa/Abidjan
-22.9,44.53333,Sakaraha,MG,Indian/Antananarivo
-31.95224,115.8614,Perth,AU,Australia/Perth
51.84819,1.26738,Walton-on-the-Naze,GB,Europe/London
51.88333,8.51667,Verl,DE,Europe/Berlin
31.96258,73.97117,Naushahra Virkan,PK,Asia/Karachi
51.26,-2.1875,Westbury,GB,Europe/London
37.19723,122.05228,Tianfu,CN,Asia/Shanghai
37.30553,120.82747,Zhuangyuan,CN,Asia/Shanghai
51.78771,56.36091,Saraktash,RU,Asia/Yekaterinburg
17.30858,97.01124,Kyaikto,MM,Asia/Yangon
5.6561,-75.87877,Andes,CO,America/Bogota
38.10558,-1.86343,Caravaca,ES,Europe/Madrid
56.11281,69.49015,Ishim,RU,Asia/Yekaterinburg
14.8361,120.97844,Guyong,PH,Asia/Manila
23.9028,89.11943,Kushtia,BD,Asia/Dhaka
54.84444,38.16694,Kashira,RU,Europe/Moscow
-26.22861,-52.67056,Pato Branco,BR,America/Sao_Paulo
40.37528,28.88222,Mudanya,TR,Europe/Istanbul
-6.48167,106.85417,Cibinong,ID,Asia/Jakarta
33.86419,48.26258,Aleshtar,IR,Asia/Tehran
41.6764,-91.58045,Coralville,US,America/Chicago
24.41288,76.56719,Aklera,IN,Asia/Kolkata
-22.9,44.53333,Sakaraha,MG,Indian/Antananarivo
11.85,38.01667,Debre Tabor,ET,Africa/Addis_Ababa
55.38752,36.73307,Naro-Fominsk,RU,Europe/Moscow
19.8173,-97.35992,Teziutlan,MX,America/Mexico_City
39.43534,-84.20299,Lebanon,US,America/New_York
40.93333,73,Jalal-Abad,KG,Asia/Bishkek
-7.57897,112.23109,Diwek,ID,Asia/Jakarta
40.85158,122.74754,Haicheng,CN,Asia/Shanghai
11.85,38.01667,Debre Tabor,ET,Africa/Addis_Ababa
6.46838,-73.26022,Socorro,CO,America/Bogota
51.21667,6.26667,Schwalmtal,DE,Europe/Berlin
40.78206,72.34424,Andijon,UZ,Asia/Tashkent
-31.25033,-61.4867,Rafaela,AR,America/Argentina/Cordoba
47.64995,-117.23991,Opportunity,US,America/Los_Angeles
51.62907,-0.74934,High Wycombe,GB,Europe/London
36.02506,-86.77917,Brentwood Estates,US,America/Chicago
51.62907,-0.74934,High Wycombe,GB,Europe/London
61.72744,17.10558,Hudiksvall,SE,Europe/Stockholm
45.75279,130.57211,Boli,CN,Asia/Shanghai
21.59983,71.21169,Amreli,IN,Asia/Kolkata
1.6,103.81667,Ulu Tiram,MY,Asia/Kuala_Lumpur
48.77644,2.29026,Sceaux,FR,Europe/Paris
34.21639,-119.0376,Camarillo,US,America/Los_Angeles
16.455,120.5875,La Trinidad,PH,Asia/Manila
40.94065,-73.99681,Dumont,US,America/New_York
43.32393,5.4584,Les Olives,FR,Europe/Paris
-7.73379,113.69785,Besuki,ID,Asia/Jakarta
45.75279,130.57211,Boli,CN,Asia/Shanghai
10.29085,105.75635,Sa Dec,VN,Asia/Ho_Chi_Minh
40.94065,-73.99681,Dumont,US,America/New_York
10.12268,77.54372,Periyakulam,IN,Asia/Kolkata
47.38093,-122.23484,Kent,US,America/Los_Angeles
44.31771,9.32241,Chiavari,IT,Europe/Rome
32.44874,-99.73314,Abilene,US,America/Chicago
3.11988,35.59642,Lodwar,KE,Africa/Nairobi
49.03685,8.70745,Bretten,DE,Europe/Berlin
-20.88231,55.4504,Saint-Denis,RE,Indian/Reunion
-19.32556,-41.25528,Resplendor,BR,America/Sao_Paulo
50.72043,11.34046,Rudolstadt,DE,Europe/Berlin
47.83333,59.6,Shalqar,KZ,Asia/Aqtobe
48.52961,12.16179,Landshut,DE,Europe/Berlin
41.91738,3.1631,Palafrugell,ES,Europe/Madrid
18.87813,72.93924,Uran,IN,Asia/Kolkata
-21.205,-41.88778,Itaperuna,BR,America/Sao_Paulo
-13.7804,34.4587,Salima,MW,Africa/Blantyre
34.75856,136.13108,Ueno-ebisumachi,JP,Asia/Tokyo
37.16911,10.03478,El Alia,TN,Africa/Tunis
29.69221,72.54566,Hasilpur,PK,Asia/Karachi
9.91861,-68.30472,Tinaquillo,VE,America/Caracas
65.93381,111.4834,Aykhal,RU,Asia/Yakutsk
55.82737,-4.0573,Viewpark,GB,Europe/London
45.50369,11.412,Montecchio Maggiore-Alte Ceccato,IT,Europe/Rome
25.95533,68.88871,Jhol,PK,Asia/Karachi
30.5427,-97.54667,Hutto,US,America/Chicago
-11.48472,-37.93278,Rio Real,BR,America/Bahia
51.65,-0.2,Barnet,GB,Europe/London
37.73604,-120.93549,Riverbank,US,America/Los_Angeles
21.34222,71.30633,Kundla,IN,Asia/Kolkata
43.61062,-72.97261,Rutland,US,America/New_York
47.83333,59.6,Shalqar,KZ,Asia/Aqtobe
41.84364,-87.71255,South Lawndale,US,America/Chicago
36,139.55722,Okegawa,JP,Asia/Tokyo
41.09822,120.74792,Nanpiao,CN,Asia/Shanghai
54.52156,9.5586,Schleswig,DE,Europe/Berlin
52.61131,13.31783,Hermsdorf,DE,Europe/Berlin
43.71032,-1.05366,Dax,FR,Europe/Paris
45.99194,29.41824,Artsyz,UA,Europe/Kiev
55.85,37.56667,Likhobory,RU,Europe/Moscow
40.57788,-73.95958,Brighton Beach,US,America/New_York
36.72544,3.55665,Thenia,DZ,Africa/Algiers
22.98212,-80.58556,Corralillo,CU,America/Havana
40.11583,67.84222,Jizzax,UZ,Asia/Samarkand
55.39485,43.83992,Arzamas,RU,Europe/Moscow
17.06542,-96.72365,Oaxaca,MX,America/Mexico_City
-20.25333,-43.80139,Itabirito,BR,America/Sao_Paulo
33.78333,114.51667,Wacheng,CN,Asia/Shanghai
44.80477,-0.59543,Talence,FR,Europe/Paris
47.76232,-122.2054,Bothell,US,America/Los_Angeles
1.6,103.81667,Ulu Tiram,MY,Asia/Kuala_Lumpur
14.66,120.56528,Pilar,PH,Asia/Manila
14.93333,-91.11667,Chichicastenango,GT,America/Guatemala
13.65805,102.56365,Paoy Paet,KH,Asia/Phnom_Penh
37.30553,120.82747,Zhuangyuan,CN,Asia/Shanghai
51.21667,6.26667,Schwalmtal,DE,Europe/Berlin
14.37395,100.48528,Bang Ban,TH,Asia/Bangkok
36.61954,4.08282,Beni Douala,DZ,Africa/Algiers
35.6803,51.0193,Shahre Jadide Andisheh,IR,Asia/Tehran
32.35126,-95.30106,Tyler,US,America/Chicago
43.86682,-79.2663,Markham,CA,America/Toronto
-1.63333,13.58357,Franceville,GA,Africa/Libreville
18.87813,72.93924,Uran,IN,Asia/Kolkata
41.80753,-87.65644,New City,US,America/Chicago
23.73333,114.68333,Heyuan,CN,Asia/Shanghai
0.49113,29.47306,Beni,CD,Africa/Lubumbashi
5.30383,-1.98956,Tarkwa,GH,Africa/Accra
48.25,16.4,Floridsdorf,AT,Europe/Vienna
-8.99167,125.21972,Maliana,TL,Asia/Dili
37.60876,-77.37331,Mechanicsville,US,America/New_York
-8.99167,125.21972,Maliana,TL,Asia/Dili
-54.8,-68.3,Ushuaia,AR,America/Argentina/Ushuaia
32.54278,111.50861,Danjiangkou,CN,Asia/Shanghai
-33.79176,151.08057,Eastwood,AU,Australia/Sydney
39.57582,-105.11221,Ken Caryl,US,America/Denver
9.91861,-68.30472,Tinaquillo,VE,America/Caracas
11.84962,-86.19903,Jinotepe,NI,America/Managua
27.9247,78.40102,Chharra,IN,Asia/Kolkata
36.20389,127.08472,Nonsan,KR,Asia/Seoul
-7.76667,35.7,Iringa,TZ,Africa/Dar_es_Salaam
40.1675,34.37389,Sungurlu,TR,Europe/Istanbul
34.25807,-88.70464,Tupelo,US,America/Chicago
15.5439,73.7553,Calangute,IN,Asia/Kolkata
40.68066,-73.47429,Massapequa,US,America/New_York
1.6561,103.6032,Kulai,MY,Asia/Kuala_Lumpur
-7.76667,35.7,Iringa,TZ,Africa/Dar_es_Salaam
30.16688,-96.39774,Brenham,US,America/Chicago
36.33011,138.89585,Annaka,JP,Asia/Tokyo
28.98002,77.70636,Meerut,IN,Asia/Kolkata
24.96334,10.18003,Ghat,LY,Africa/Tripoli
52.4581,13.28702,Dahlem,DE,Europe/Berlin
50.50301,13.63617,Most,CZ,Europe/Prague
-3.5403,118.9707,Majene,ID,Asia/Makassar
-32.45242,-71.23106,La Ligua,CL,America/Santiago
11.8659,34.3869,Ar Ruseris,SD,Africa/Khartoum
12.97389,123.99333,Sorsogon,PH,Asia/Manila
36.76639,3.47717,Boumerdas,DZ,Africa/Algiers
53.0233,-1.48119,Belper,GB,Europe/London
51.12794,4.21372,Temse,BE,Europe/Brussels
-10.90889,-37.03861,Barra dos Coqueiros,BR,America/Maceio
47.83333,59.6,Shalqar,KZ,Asia/Aqtobe
39.43534,-84.20299,Lebanon,US,America/New_York
15.73628,75.96976,Gajendragarh,IN,Asia/Kolkata
33.03699,-117.29198,Encinitas,US,America/Los_Angeles
3.27833,32.88667,Kitgum,UG,Africa/Kampala
42,21.32778,Saraj,MK,Europe/Skopje
53.6052,10.03988,Barmbek-Nord,DE,Europe/Berlin
36.92574,14.72443,Ragusa,IT,Europe/Rome
50.23805,8.86704,Nidderau,DE,Europe/Berlin
41.24264,16.50104,Bisceglie,IT,Europe/Rome
42.97086,-82.42491,Port Huron,US,America/Detroit
40.93121,-73.89875,Yonkers,US,America/New_York
45.49428,-122.86705,Aloha,US,America/Los_Angeles
32.87533,71.57118,Daud Khel,PK,Asia/Karachi
-54.8,-68.3,Ushuaia,AR,America/Argentina/Ushuaia
23.18,88.58,Aistala,IN,Asia/Kolkata
-7.51611,109.05389,Wangon,ID,Asia/Jakarta
-22.53722,-42.98194,Guapimirim,BR,America/Sao_Paulo
0.76755,24.43973,Yangambi,CD,Africa/Lubumbashi
37.19723,122.05228,Tianfu,CN,Asia/Shanghai
43.83125,5.03586,Cavaillon,FR,Europe/Paris
30.17746,-81.38758,Palm Valley,US,America/New_York
14.46693,75.92694,Davangere,IN,Asia/Kolkata
37.35813,-6.03731,San Juan de Aznalfarache,ES,Europe/Madrid
5.90702,116.10146,Donggongon,MY,Asia/Kuching
16.0438,120.4861,Manaoag,PH,Asia/Manila
51.35084,-1.99421,Devizes,GB,Europe/London
50.72043,11.34046,Rudolstadt,DE,Europe/Berlin
19.04222,-98.11889,Casa Blanca,MX,America/Mexico_City
43.32393,5.4584,Les Olives,FR,Europe/Paris
49.65186,26.97253,Krasyliv,UA,Europe/Kiev
53.5942,25.8191,Novogrudok,BY,Europe/Minsk
-3.5403,118.9707,Majene,ID,Asia/Makassar
36,139.55722,Okegawa,JP,Asia/Tokyo
37.56667,140.11667,Inawashiro,JP,Asia/Tokyo
34.85,117.33333,Taozhuang,CN,Asia/Shanghai
27.85,112.9,Xiangtan,CN,Asia/Shanghai
31.64615,120.74221,Changshu City,CN,Asia/Shanghai
-22.57306,-47.1725,Artur Nogueira,BR,America/Sao_Paulo
44.35056,142.45778,Nayoro,JP,Asia/Tokyo
51.168,7.973,Finnentrop,DE,Europe/Berlin
-21.15,46.58333,Ikalamavony,MG,Indian/Antananarivo
-11.48472,-37.93278,Rio Real,BR,America/Bahia
32.54044,-82.90375,Dublin,US,America/New_York
33.3213,130.94098,Hita,JP,Asia/Tokyo
40.34912,-111.90466,Saratoga Springs,US,America/Denver
51.955,5.22778,Culemborg,NL,Europe/Amsterdam
10.61285,12.19458,Biu,NG,Africa/Lagos
37.13548,-3.67029,Las Gabias,ES,Europe/Madrid
53.43333,-7.95,Athlone,IE,Europe/Dublin
51.4781,57.3552,Kuvandyk,RU,Asia/Yekaterinburg
41.14676,-73.49484,New Canaan,US,America/New_York
41.50343,-74.01042,Newburgh,US,America/New_York
4.92675,6.26764,Yenagoa,NG,Africa/Lagos
-6.8048,110.8405,Kudus,ID,Asia/Jakarta
5.4709,100.24529,Batu Feringgi,MY,Asia/Kuala_Lumpur
26.2173,-80.22588,North Lauderdale,US,America/New_York
18.20854,-71.10077,Santa Cruz de Barahona,DO,America/Santo_Domingo
13.70167,-89.10944,Ilopango,SV,America/El_Salvador
-36.9256,-73.02841,Chiguayante,CL,America/Santiago
36.81667,117.81667,Zhoucun,CN,Asia/Shanghai
55.39485,43.83992,Arzamas,RU,Europe/Moscow
37.49073,-2.77259,Baza,ES,Europe/Madrid
52.14,5.58472,Barneveld,NL,Europe/Amsterdam
40.58654,-122.39168,Redding,US,America/Los_Angeles
34.25807,-88.70464,Tupelo,US,America/Chicago
42.35843,-71.05977,Boston,US,America/New_York
51.04962,12.1369,Zeitz,DE,Europe/Berlin
39.32288,-76.72803,Woodlawn,US,America/New_York
21.59983,71.21169,Amreli,IN,Asia/Kolkata
43.67681,4.63031,Arles,FR,Europe/Paris
12.95629,78.27539,Robertsonpet,IN,Asia/Kolkata
36.02506,-86.77917,Brentwood Estates,US,America/Chicago
50.75767,-1.5443,Lymington,GB,Europe/London
41.66394,-83.55521,Toledo,US,America/New_York
41.63976,2.35739,Cardedeu,ES,Europe/Madrid
10.12268,77.54372,Periyakulam,IN,Asia/Kolkata
48.35149,8.96317,Hechingen,DE,Europe/Berlin
-10.95817,-38.79084,Tucano,BR,America/Bahia
-6.91806,106.92667,Sukabumi,ID,Asia/Jakarta
-4.24444,-42.29444,Barras,BR,America/Fortaleza
2.41669,30.98551,Paidha,UG,Africa/Kampala
60.2052,24.6522,Espoo,FI,Europe/Helsinki
40.34912,-111.90466,Saratoga Springs,US,America/Denver
43.71032,-1.05366,Dax,FR,Europe/Paris
-44.39672,171.25364,Timaru,NZ,Pacific/Auckland
22.10194,85.37752,Barbil,IN,Asia/Kolkata
24.05979,77.40858,Leteri,IN,Asia/Kolkata
41.92361,20.91361,Bogovinje,MK,Europe/Skopje
-31.95224,115.8614,Perth,AU,Australia/Perth
34.9,137.5,Shinshiro,JP,Asia/Tokyo
18.18158,76.03889,Osmanabad,IN,Asia/Kolkata
41.92361,20.91361,Bogovinje,MK,Europe/Skopje
-27.76952,30.79165,Vryheid,ZA,Africa/Johannesburg
47.90771,106.88324,Ulan Bator,MN,Asia/Ulaanbaatar
40.63316,-74.13653,Port Richmond,US,America/New_York
-29.2975,-51.50361,Carlos Barbosa,BR,America/Sao_Paulo
51.65333,5.2875,Vught,NL,Europe/Amsterdam
3.11988,35.59642,Lodwar,KE,Africa/Nairobi
51.95838,4.47124,Schiebroek,NL,Europe/Amsterdam
50.11861,-5.53715,Penzance,GB,Europe/London
52.61131,13.31783,Hermsdorf,DE,Europe/Berlin
47.98372,10.18527,Memmingen,DE,Europe/Berlin
41.24264,16.50104,Bisceglie,IT,Europe/Rome
24.96334,10.18003,Ghat,LY,Africa/Tripoli
39.33427,-76.43941,Middle River,US,America/New_York
11.15583,42.7125,'Ali Sabieh,DJ,Africa/Djibouti
48.77644,2.29026,Sceaux,FR,Europe/Paris
52.48173,-2.12139,Brierley Hill,GB,Europe/London
50.11861,-5.53715,Penzance,GB,Europe/London
-1.26424,104.09701,Simpang,ID,Asia/Jakarta
41.80753,-87.65644,New City,US,America/Chicago
42.52787,-70.92866,Peabody,US,America/New_York
17.94979,-94.91386,Acayucan,MX,America/Mexico_City
16.455,120.5875,La Trinidad,PH,Asia/Manila
34.15429,3.50309,Messaad,DZ,Africa/Algiers
51.95838,4.47124,Schiebroek,NL,Europe/Amsterdam
23.73333,114.68333,Heyuan,CN,Asia/Shanghai
51.26,-2.1875,Westbury,GB,Europe/London
-19.32556,-41.25528,Resplendor,BR,America/Sao_Paulo
34.09668,-117.71978,Claremont,US,America/Los_Angeles
15.46063,99.89166,Thap Than,TH,Asia/Bangkok
36.61954,4.08282,Beni Douala,DZ,Africa/Algiers
-10.90889,-37.03861,Barra dos Coqueiros,BR,America/Maceio
47.90771,106.88324,Ulan Bator,MN,Asia/Ulaanbaatar
40.24537,-75.64963,Pottstown,US,America/New_York
57.47908,-4.22398,Inverness,GB,Europe/London
47.30997,8.52462,Adliswil,CH,Europe/Zurich
9.6531,124.3697,Jagna,PH,Asia/Manila
48.49144,9.20427,Reutlingen,DE,Europe/Berlin
52.71083,5.74861,Emmeloord,NL,Europe/Amsterdam
50.82882,-0.32247,Lancing,GB,Europe/London
20.74122,-100.44843,Santa Rosa Jauregui,MX,America/Mexico_City
52.48173,-2.12139,Brierley Hill,GB,Europe/London
11.85,38.01667,Debre Tabor,ET,Africa/Addis_Ababa
-7.73379,113.69785,Besuki,ID,Asia/Jakarta
35.48199,137.02166,Minokamo,JP,Asia/Tokyo
12.25282,79.41727,Gingee,IN,Asia/Kolkata
43.82634,144.09638,Motomachi,JP,Asia/Tokyo
12.74482,4.52514,Argungu,NG,Africa/Lagos
5.27247,-3.59625,Bonoua,CI,Africa/Abidjan
41.8542,-87.66561,Lower West Side,US,America/Chicago
9.57046,76.32756,Kalavoor,IN,Asia/Kolkata
44.99012,-123.02621,Keizer,US,America/Los_Angeles
6.46838,-73.26022,Socorro,CO,America/Bogota
35.8,137.23333,Gero,JP,Asia/Tokyo
-4.24444,-42.29444,Barras,BR,America/Fortaleza
36.61954,4.08282,Beni Douala,DZ,Africa/Algiers
48.86667,2.08333,Marly-le-Roi,FR,Europe/Paris
40.64621,-73.97069,Kensington,US,America/New_York
41.09822,120.74792,Nanpiao,CN,Asia/Shanghai
51.84819,1.26738,Walton-on-the-Naze,GB,Europe/London
-37.88333,145.06667,Carnegie,AU,Australia/Melbourne
-22.45667,-47.53028,Santa Gertrudes,BR,America/Sao_Paulo
36.64852,51.49621,Nowshahr,IR,Asia/Tehran
55.54028,89.20083,Sharypovo,RU,Asia/Krasnoyarsk
40.1675,34.37389,Sungurlu,TR,Europe/Istanbul
-25.42778,-49.27306,Curitiba,BR,America/Sao_Paulo
34.9,137.5,Shinshiro,JP,Asia/Tokyo
13.70727,9.15013,Mirriah,NE,Africa/Niamey
47.90771,106.88324,Ulan Bator,MN,Asia/Ulaanbaatar
-33.79176,151.08057,Eastwood,AU,Australia/Sydney
54.52156,9.5586,Schleswig,DE,Europe/Berlin
-11.78333,19.91667,Luena,AO,Africa/Luanda
48.79325,2.29275,Fontenay-aux-Roses,FR,Europe/Paris
36.21544,65.93249,Sar-e Pul,AF,Asia/Kabul
34.5624,38.28402,Tadmur,SY,Asia/Damascus
48.90472,2.2469,La Garenne-Colombes,FR,Europe/Paris
55.8736,85.4265,Yashkino,RU,Asia/Novokuznetsk
11.8659,34.3869,Ar Ruseris,SD,Africa/Khartoum
51.04962,12.1369,Zeitz,DE,Europe/Berlin
48.90472,2.2469,La Garenne-Colombes,FR,Europe/Paris
42.819,47.1192,Buynaksk,RU,Europe/Moscow
45.53069,9.40531,Gorgonzola,IT,Europe/Rome
19.32889,-99.32556,San Lorenzo Acopilco,MX,America/Mexico_City
-21.98333,16.91667,Okahandja,NA,Africa/Windhoek
27.85,112.9,Xiangtan,CN,Asia/Shanghai
-26.93366,29.24152,Standerton,ZA,Africa/Johannesburg
41.72063,12.6723,Ariccia,IT,Europe/Rome
53.94313,10.30215,Bad Segeberg,DE,Europe/Berlin
13.48082,-86.58208,Somoto,NI,America/Managua
10.10649,76.35484,Alwaye,IN,Asia/Kolkata
25.87972,-97.50417,Heroica Matamoros,MX,America/Matamoros
14.95472,120.89694,Baliuag,PH,Asia/Manila
30.29184,71.67164,Qadirpur Ran,PK,Asia/Karachi
55.64776,38.02486,Malakhovka,RU,Europe/Moscow
44.92801,4.8951,Valence,FR,Europe/Paris
45.0408,-93.263,Columbia Heights,US,America/Chicago
-14.66463,-52.35558,Nova Xavantina,BR,America/Cuiaba
-24.19436,29.00974,Mokopane,ZA,Africa/Johannesburg
33.72255,-116.37697,Palm Desert,US,America/Los_Angeles
13.51825,99.95469,Damnoen Saduak,TH,Asia/Bangkok
48.07667,8.64409,Trossingen,DE,Europe/Berlin
7.83389,-72.47417,Villa del Rosario,CO,America/Bogota
49.03685,8.70745,Bretten,DE,Europe/Berlin
39.45621,-77.96389,Martinsburg,US,America/New_York
13.44581,101.18445,Phanat Nikhom,TH,Asia/Bangkok
51.44889,5.51978,Tongelre,NL,Europe/Amsterdam
44.27804,-88.27205,Kaukauna,US,America/Chicago
17.54907,82.85749,Elamanchili,IN,Asia/Kolkata
34.8825,128.62667,Sinhyeon,KR,Asia/Seoul
31.78336,35.23388,East Jerusalem,PS,Asia/Hebron
13.70727,9.15013,Mirriah,NE,Africa/Niamey
-22.9,44.53333,Sakaraha,MG,Indian/Antananarivo
-8.99167,125.21972,Maliana,TL,Asia/Dili
53.77166,38.12408,Bogoroditsk,RU,Europe/Moscow
45.99194,29.41824,Artsyz,UA,Europe/Kiev
40.72816,-74.07764,Jersey City,US,America/New_York
19.8173,-97.35992,Teziutlan,MX,America/Mexico_City
42.52787,-70.92866,Peabody,US,America/New_York
45.44694,8.62118,Novara,IT,Europe/Rome
38.10558,-1.86343,Caravaca,ES,Europe/Madrid
55.75556,60.70278,Ozersk,RU,Asia/Yekaterinburg
31.92923,34.86563,Ramla,IL,Asia/Jerusalem
53.53395,33.72798,Zhukovka,RU,Europe/Moscow
42.64031,125.51176,Dongfeng,CN,Asia/Shanghai
48.8222,2.12213,Le Chesnay,FR,Europe/Paris
53.59782,34.33825,Dyat‚Äôkovo,RU,Europe/Moscow
14.37395,100.48528,Bang Ban,TH,Asia/Bangkok
27.71809,-82.35176,Sun City Center,US,America/New_York
36.75965,137.36215,Namerikawa,JP,Asia/Tokyo
48.90472,2.2469,La Garenne-Colombes,FR,Europe/Paris
48.90982,2.45012,Bobigny,FR,Europe/Paris
32.50611,120.14278,Jiangyan,CN,Asia/Shanghai
47.83333,59.6,Shalqar,KZ,Asia/Aqtobe
32.9156,-117.14392,Mira Mesa,US,America/Los_Angeles
38.40917,112.73333,Xinzhou,CN,Asia/Shanghai
12.37169,123.62494,Masbate,PH,Asia/Manila
11.15583,42.7125,'Ali Sabieh,DJ,Africa/Djibouti
58.1908,40.17171,Danilov,RU,Europe/Moscow
25.66795,85.83636,Dalsingh Sarai,IN,Asia/Kolkata
37.49223,15.07041,Catania,IT,Europe/Rome
37.74615,-25.66689,Ponta Delgada,PT,Atlantic/Azores
44.43579,26.01649,Sector 6,RO,Europe/Bucharest
24.96334,10.18003,Ghat,LY,Africa/Tripoli
5.4709,100.24529,Batu Feringgi,MY,Asia/Kuala_Lumpur
33.37526,74.3092,Rajaori,IN,Asia/Kolkata
-6.25,38.66667,Mvomero,TZ,Africa/Dar_es_Salaam
26.76628,83.36889,Gorakhpur,IN,Asia/Kolkata
55.1904,30.2049,Vitebsk,BY,Europe/Minsk
56.85836,35.90057,Tver,RU,Europe/Moscow
39.09112,-94.41551,Independence,US,America/Chicago
27.92333,118.53333,Pucheng,CN,Asia/Shanghai
13.48082,-86.58208,Somoto,NI,America/Managua
34.63915,-120.45794,Lompoc,US,America/Los_Angeles
41.27194,123.17306,Liaoyang,CN,Asia/Shanghai
34.14251,-118.25508,Glendale,US,America/Los_Angeles
59.37722,28.19028,Narva,EE,Europe/Tallinn
51.168,7.973,Finnentrop,DE,Europe/Berlin
36.20389,127.08472,Nonsan,KR,Asia/Seoul
41.63976,2.35739,Cardedeu,ES,Europe/Madrid
11.15583,42.7125,'Ali Sabieh,DJ,Africa/Djibouti
9.82564,78.25795,Tiruppuvanam,IN,Asia/Kolkata
53.81667,-3.05,Blackpool,GB,Europe/London
37.65639,126.835,Goyang-si,KR,Asia/Seoul
49.41029,38.15035,Svatove,UA,Europe/Zaporozhye
30.21121,74.4818,Malaut,IN,Asia/Kolkata
10.58806,77.24779,Udumalaippettai,IN,Asia/Kolkata
26.44931,91.61356,Rangia,IN,Asia/Kolkata
14.95472,120.89694,Baliuag,PH,Asia/Manila
14.64056,104.64992,Kantharalak,TH,Asia/Bangkok
-24.19436,29.00974,Mokopane,ZA,Africa/Johannesburg
-27.76952,30.79165,Vryheid,ZA,Africa/Johannesburg
-20.88231,55.4504,Saint-Denis,RE,Indian/Reunion
40.92298,14.30935,Afragola,IT,Europe/Rome
26.2173,-80.22588,North Lauderdale,US,America/New_York
50.56149,4.69889,Gembloux,BE,Europe/Brussels
51.64316,-0.36053,Bushey,GB,Europe/London
13.70727,9.15013,Mirriah,NE,Africa/Niamey
-23.44361,-51.87389,Sarandi,BR,America/Sao_Paulo
-4.06667,37.73333,Same,TZ,Africa/Dar_es_Salaam
14.0823,98.19151,Dawei,MM,Asia/Yangon
53.00974,-3.05814,Rhosllanerchrugog,GB,Europe/London
26.67319,31.4976,Juhaynah,EG,Africa/Cairo
6.15038,6.83042,Nkpor,NG,Africa/Lagos
53.49389,-1.29243,Mexborough,GB,Europe/London
26.91756,-82.07842,Punta Gorda Isles,US,America/New_York
24.81757,84.63445,Rafiganj,IN,Asia/Kolkata
42.7,27.25,Aytos,BG,Europe/Sofia
12.35275,121.06761,San Jose,PH,Asia/Manila
35.74788,-95.36969,Muskogee,US,America/Chicago
41.41204,2.18247,el Camp de l'Arpa del Clot,ES,Europe/Madrid
34.25,135.31667,Iwade,JP,Asia/Tokyo
41.84364,-87.71255,South Lawndale,US,America/Chicago
41.92361,20.91361,Bogovinje,MK,Europe/Skopje
45.79377,8.88104,Malnate,IT,Europe/Rome
-26.93366,29.24152,Standerton,ZA,Africa/Johannesburg
35.48199,137.02166,Minokamo,JP,Asia/Tokyo
6.33444,124.95278,Tupi,PH,Asia/Manila
-19.7625,-44.31389,Esmeraldas,BR,America/Sao_Paulo
20.28527,-103.42897,Jocotepec,MX,America/Mexico_City
37.51803,15.00913,Misterbianco,IT,Europe/Rome
51.40944,46.04833,Privolzhskiy,RU,Europe/Saratov
22.49396,-105.36369,Acaponeta,MX,America/Mazatlan
36.6009,126.665,Hongseong,KR,Asia/Seoul
53.63333,9.85,Halstenbek,DE,Europe/Berlin
25.95533,68.88871,Jhol,PK,Asia/Karachi
55.82885,-4.21376,Rutherglen,GB,Europe/London
51.08468,7.11393,Burscheid,DE,Europe/Berlin
6.45407,3.39467,Lagos,NG,Africa/Lagos
-8.05389,-34.88111,Recife,BR,America/Recife
51.04962,12.1369,Zeitz,DE,Europe/Berlin
53.7446,-0.33525,Kingston upon Hull,GB,Europe/London
26.68451,-80.66756,Belle Glade,US,America/New_York
-21.15,46.58333,Ikalamavony,MG,Indian/Antananarivo
43.78956,7.60872,Ventimiglia,IT,Europe/Rome
35.30889,139.55028,Kamakura,JP,Asia/Tokyo
50.23019,8.77155,Karben,DE,Europe/Berlin
37.56667,140.11667,Inawashiro,JP,Asia/Tokyo
41.27621,-72.86843,East Haven,US,America/New_York
52.86147,9.5926,Walsrode,DE,Europe/Berlin
6.46346,-2.31938,Bibiani,GH,Africa/Accra
47.64995,-117.23991,Opportunity,US,America/Los_Angeles
65.93381,111.4834,Aykhal,RU,Asia/Yakutsk
12.18441,18.69303,Mongo,TD,Africa/Ndjamena
44.31771,9.32241,Chiavari,IT,Europe/Rome
41.55947,14.66737,Campobasso,IT,Europe/Rome
15.46063,99.89166,Thap Than,TH,Asia/Bangkok
36.61954,4.08282,Beni Douala,DZ,Africa/Algiers
5.30383,-1.98956,Tarkwa,GH,Africa/Accra
50.80019,7.20769,Siegburg,DE,Europe/Berlin
13.48082,-86.58208,Somoto,NI,America/Managua
40.85158,122.74754,Haicheng,CN,Asia/Shanghai
11.15583,42.7125,'Ali Sabieh,DJ,Africa/Djibouti
29.21399,78.95693,Kashipur,IN,Asia/Kolkata
-37.9,145.18333,Wheelers Hill,AU,Australia/Melbourne
51.26,-2.1875,Westbury,GB,Europe/London
40.98894,28.67582,Yakuplu,TR,Europe/Istanbul
43.86682,-79.2663,Markham,CA,America/Toronto
38.40917,112.73333,Xinzhou,CN,Asia/Shanghai
36.92574,14.72443,Ragusa,IT,Europe/Rome
40.72371,-73.95097,Greenpoint,US,America/New_York
8.79577,-75.69947,San Carlos,CO,America/Bogota
15.46063,99.89166,Thap Than,TH,Asia/Bangkok
15.48131,-86.57415,Olanchito,HN,America/Tegucigalpa
10.12268,77.54372,Periyakulam,IN,Asia/Kolkata
38.06084,-97.92977,Hutchinson,US,America/Chicago
50.23805,8.86704,Nidderau,DE,Europe/Berlin
53.53395,33.72798,Zhukovka,RU,Europe/Moscow
42.58342,-71.8023,Fitchburg,US,America/New_York
48.98693,2.44892,Gonesse,FR,Europe/Paris
44.80477,-0.59543,Talence,FR,Europe/Paris
-25.42944,-50.00639,Palmeira,BR,America/Sao_Paulo
20.74122,-100.44843,Santa Rosa Jauregui,MX,America/Mexico_City
-7.57897,112.23109,Diwek,ID,Asia/Jakarta
40.98894,28.67582,Yakuplu,TR,Europe/Istanbul
53.46506,-1.47217,Chapletown,GB,Europe/London
34.9,137.5,Shinshiro,JP,Asia/Tokyo
-1.9487,30.4347,Rwamagana,RW,Africa/Kigali
-2.68333,33,Usagara,TZ,Africa/Dar_es_Salaam
38.13708,41.00817,Silvan,TR,Europe/Istanbul
29.98869,122.20488,Zhoushan,CN,Asia/Shanghai
-8.73508,24.99798,Kamina,CD,Africa/Lubumbashi
44.59445,11.04979,Castelfranco Emilia,IT,Europe/Rome
-33.88096,151.07986,Strathfield,AU,Australia/Sydney
50.18545,27.06365,Shepetivka,UA,Europe/Kiev
52.66277,-2.01111,Great Wyrley,GB,Europe/London
25.66795,85.83636,Dalsingh Sarai,IN,Asia/Kolkata
12.95629,78.27539,Robertsonpet,IN,Asia/Kolkata
-21.98333,16.91667,Okahandja,NA,Africa/Windhoek
10.29085,105.75635,Sa Dec,VN,Asia/Ho_Chi_Minh
-12.91667,-39.25,Muritiba,BR,America/Bahia
42.58342,-71.8023,Fitchburg,US,America/New_York
48.46458,9.22796,Pfullingen,DE,Europe/Berlin
45.16024,-93.08883,Lino Lakes,US,America/Chicago
38.06084,-97.92977,Hutchinson,US,America/Chicago
59.37722,28.19028,Narva,EE,Europe/Tallinn
-32.45242,-71.23106,La Ligua,CL,America/Santiago
-2.13404,-79.59415,Milagro,EC,America/Guayaquil
33.45122,-86.99666,Hueytown,US,America/Chicago
34.65918,109.22921,Yanliang,CN,Asia/Shanghai
-6.91806,106.92667,Sukabumi,ID,Asia/Jakarta
52.59319,13.32127,Wittenau,DE,Europe/Berlin
0.46005,34.11169,Busia,KE,Africa/Nairobi
36.24624,139.07204,Fujioka,JP,Asia/Tokyo
53.6052,10.03988,Barmbek-Nord,DE,Europe/Berlin
51.65,-0.2,Barnet,GB,Europe/London
23.1959,86.51499,Kenda,IN,Asia/Kolkata
46.09273,-88.64235,Iron River,US,America/Menominee
36.72544,3.55665,Thenia,DZ,Africa/Algiers
44.35056,142.45778,Nayoro,JP,Asia/Tokyo
10.61285,12.19458,Biu,NG,Africa/Lagos
-8.28333,-35.03333,Cabo,BR,America/Recife
53.59337,9.47629,Stade,DE,Europe/Berlin
38.96667,-0.18333,Gandia,ES,Europe/Madrid
31.64615,120.74221,Changshu City,CN,Asia/Shanghai
-31.4488,-60.93173,Esperanza,AR,America/Argentina/Cordoba
58.63667,59.80222,Lesnoy,RU,Asia/Yekaterinburg
-1.26424,104.09701,Simpang,ID,Asia/Jakarta
52.68333,0.93333,East Dereham,GB,Europe/London
1.6,103.81667,Ulu Tiram,MY,Asia/Kuala_Lumpur
61.78491,34.34691,Petrozavodsk,RU,Europe/Moscow
50.23271,12.87117,Karlovy Vary,CZ,Europe/Prague
38.40917,112.73333,Xinzhou,CN,Asia/Shanghai
21.59983,71.21169,Amreli,IN,Asia/Kolkata
-1.9487,30.4347,Rwamagana,RW,Africa/Kigali
34.25628,-78.04471,Leland,US,America/New_York
43.61092,3.87723,Montpellier,FR,Europe/Paris
33.72255,-116.37697,Palm Desert,US,America/Los_Angeles
11.93381,79.82979,Puducherry,IN,Asia/Kolkata
30.16688,-96.39774,Brenham,US,America/Chicago
35.25064,-91.73625,Searcy,US,America/Chicago
-21.44345,-65.71875,Tupiza,BO,America/La_Paz
40.70995,0.57856,Amposta,ES,Europe/Madrid
43.61062,-72.97261,Rutland,US,America/New_York
32.65246,51.67462,Isfahan,IR,Asia/Tehran
41.94175,123.50266,Hushitai,CN,Asia/Shanghai
36.91023,-121.75689,Watsonville,US,America/Los_Angeles
41.0051,-73.78458,Scarsdale,US,America/New_York
37.65639,126.835,Goyang-si,KR,Asia/Seoul
35.61452,-88.81395,Jackson,US,America/Chicago
-21.15,46.58333,Ikalamavony,MG,Indian/Antananarivo
48.8449,17.22635,Skalica,SK,Europe/Bratislava
33.93113,-117.54866,Norco,US,America/Los_Angeles
43.54072,-116.56346,Nampa,US,America/Boise
41.24264,16.50104,Bisceglie,IT,Europe/Rome
3.02013,30.91105,Arua,UG,Africa/Kampala
39.78504,-85.76942,Greenfield,US,America/Indiana/Indianapolis
-6.25,38.66667,Mvomero,TZ,Africa/Dar_es_Salaam
9.535,-13.68778,Camayenne,GN,Africa/Conakry
21.59983,71.21169,Amreli,IN,Asia/Kolkata
35,136.51667,Komono,JP,Asia/Tokyo
39.72943,-104.83192,Aurora,US,America/Denver
33.3213,130.94098,Hita,JP,Asia/Tokyo
50.18545,27.06365,Shepetivka,UA,Europe/Kiev
50.23019,8.77155,Karben,DE,Europe/Berlin
-1.26753,116.82887,Balikpapan,ID,Asia/Makassar
52.68333,0.93333,East Dereham,GB,Europe/London
55.82885,-4.21376,Rutherglen,GB,Europe/London
26.32293,91.00632,Barpeta,IN,Asia/Kolkata
34.63915,-120.45794,Lompoc,US,America/Los_Angeles
54.8421,46.5813,Alatyr‚Äô,RU,Europe/Moscow
53.38333,-0.76667,Gainsborough,GB,Europe/London
50.20528,19.27498,Jaworzno,PL,Europe/Warsaw
42.7,27.25,Aytos,BG,Europe/Sofia
35.05266,-78.87836,Fayetteville,US,America/New_York
45.0408,-93.263,Columbia Heights,US,America/Chicago
-26.93366,29.24152,Standerton,ZA,Africa/Johannesburg
53.14657,140.72287,Nikolayevsk-on-Amure,RU,Asia/Vladivostok
41.24264,16.50104,Bisceglie,IT,Europe/Rome
25.92493,73.66633,Sojat,IN,Asia/Kolkata
50.88506,4.07601,Denderleeuw,BE,Europe/Brussels
36.76639,3.47717,Boumerdas,DZ,Africa/Algiers
60.18427,24.95034,Kallio,FI,Europe/Helsinki
32.65246,51.67462,Isfahan,IR,Asia/Tehran
6.46838,-73.26022,Socorro,CO,America/Bogota
49.13645,8.91229,Eppingen,DE,Europe/Berlin
15.45144,78.14797,Betamcherla,IN,Asia/Kolkata
31.20176,29.91582,Alexandria,EG,Africa/Cairo
10.61285,12.19458,Biu,NG,Africa/Lagos
40.82232,-74.15987,Nutley,US,America/New_York
53.83333,-2.98333,Poulton-le-Fylde,GB,Europe/London
12.1277,78.15794,Dharmapuri,IN,Asia/Kolkata
11.86064,9.0027,Gaya,NG,Africa/Lagos
56.11281,69.49015,Ishim,RU,Asia/Yekaterinburg
38.07789,13.44275,Villabate,IT,Europe/Rome
35.30889,139.55028,Kamakura,JP,Asia/Tokyo
58.04254,65.27258,Tavda,RU,Asia/Yekaterinburg
11.12018,76.11996,Manjeri,IN,Asia/Kolkata
33.14447,47.3799,Darreh Shahr,IR,Asia/Tehran
42.58342,-71.8023,Fitchburg,US,America/New_York
51.82721,107.60627,Ulan-Ude,RU,Asia/Irkutsk
14.46693,75.92694,Davangere,IN,Asia/Kolkata
-22.92306,-53.13722,Loanda,BR,America/Sao_Paulo
45.53069,9.40531,Gorgonzola,IT,Europe/Rome
55.67938,12.53463,Frederiksberg,DK,Europe/Copenhagen
43.61058,1.33467,Colomiers,FR,Europe/Paris
40.85158,122.74754,Haicheng,CN,Asia/Shanghai
43.1122,12.38878,Perugia,IT,Europe/Rome
-23.44361,-51.87389,Sarandi,BR,America/Sao_Paulo
61.72744,17.10558,Hudiksvall,SE,Europe/Stockholm
34.81667,137.4,Toyokawa,JP,Asia/Tokyo
14.46693,75.92694,Davangere,IN,Asia/Kolkata
37.08819,-8.2503,Albufeira,PT,Europe/Lisbon
53.53333,-7.35,An Muileann gCearr,IE,Europe/Dublin
40.72371,-73.95097,Greenpoint,US,America/New_York
34.65918,109.22921,Yanliang,CN,Asia/Shanghai
23.1959,86.51499,Kenda,IN,Asia/Kolkata
-6.8048,110.8405,Kudus,ID,Asia/Jakarta
40.58654,-122.39168,Redding,US,America/Los_Angeles
51.65,-0.2,Barnet,GB,Europe/London
14.66,120.56528,Pilar,PH,Asia/Manila
30.24706,115.04814,Huangshi,CN,Asia/Shanghai
44.59445,11.04979,Castelfranco Emilia,IT,Europe/Rome
37.71715,-122.40433,Visitacion Valley,US,America/Los_Angeles
-3.5403,118.9707,Majene,ID,Asia/Makassar
-11.78333,19.91667,Luena,AO,Africa/Luanda
-5.41667,38.01667,Chanika,TZ,Africa/Dar_es_Salaam
45.49428,-122.86705,Aloha,US,America/Los_Angeles
54.90083,38.07083,Stupino,RU,Europe/Moscow
56.03361,35.96944,Volokolamsk,RU,Europe/Moscow
50.56149,4.69889,Gembloux,BE,Europe/Brussels
27.71809,-82.35176,Sun City Center,US,America/New_York
-25.54073,152.70493,Maryborough,AU,Australia/Brisbane
14.64056,104.64992,Kantharalak,TH,Asia/Bangkok
56.11281,69.49015,Ishim,RU,Asia/Yekaterinburg
41.20485,-8.33147,Paredes,PT,Europe/Lisbon
10.12268,77.54372,Periyakulam,IN,Asia/Kolkata
37.13548,-3.67029,Las Gabias,ES,Europe/Madrid
-22.97056,-46.99583,Valinhos,BR,America/Sao_Paulo
51.955,5.22778,Culemborg,NL,Europe/Amsterdam
41.9001,-71.08977,Taunton,US,America/New_York
-28.81833,-52.51028,Soledade,BR,America/Sao_Paulo
46.1351,-60.1831,Sydney,CA,America/Glace_Bay
2.41669,30.98551,Paidha,UG,Africa/Kampala
11.50526,77.23826,Sathyamangalam,IN,Asia/Kolkata
-22.57306,-47.1725,Artur Nogueira,BR,America/Sao_Paulo
35,136.51667,Komono,JP,Asia/Tokyo
36.76639,3.47717,Boumerdas,DZ,Africa/Algiers
37.95143,-91.77127,Rolla,US,America/Chicago
43.1122,12.38878,Perugia,IT,Europe/Rome
41.16704,-73.20483,Bridgeport,US,America/New_York
36.33011,138.89585,Annaka,JP,Asia/Tokyo
41.72059,-87.70172,Evergreen Park,US,America/Chicago
40.87329,14.43865,Somma Vesuviana,IT,Europe/Rome
6.8485,3.64633,Shagamu,NG,Africa/Lagos
48.21644,9.02596,Albstadt,DE,Europe/Berlin
55.64776,38.02486,Malakhovka,RU,Europe/Moscow
27.92333,118.53333,Pucheng,CN,Asia/Shanghai
-37.88333,145.06667,Carnegie,AU,Australia/Melbourne
41.84364,-87.71255,South Lawndale,US,America/Chicago
55.38752,36.73307,Naro-Fominsk,RU,Europe/Moscow
25.49043,85.94001,Teghra,IN,Asia/Kolkata
17.94979,-94.91386,Acayucan,MX,America/Mexico_City
43.61062,-72.97261,Rutland,US,America/New_York
50.80019,7.20769,Siegburg,DE,Europe/Berlin
46.75451,33.34864,Nova Kakhovka,UA,Europe/Kiev
51.88333,8.51667,Verl,DE,Europe/Berlin
-19.72806,-50.19556,Iturama,BR,America/Sao_Paulo
50.9803,11.32903,Weimar,DE,Europe/Berlin
53.00974,-3.05814,Rhosllanerchrugog,GB,Europe/London
39.57582,-105.11221,Ken Caryl,US,America/Denver
-25.54073,152.70493,Maryborough,AU,Australia/Brisbane
-19.65,47.31667,Antanifotsy,MG,Indian/Antananarivo
10.98778,-74.95472,Puerto Colombia,CO,America/Bogota
45.9836,12.70038,Cordenons,IT,Europe/Rome
25.87498,86.59611,Saharsa,IN,Asia/Kolkata
52.2,8.63333,Kirchlengern,DE,Europe/Berlin
34.08565,74.80555,Srinagar,IN,Asia/Kolkata
48.98994,2.1699,Herblay,FR,Europe/Paris
26.68451,-80.66756,Belle Glade,US,America/New_York
5.30383,-1.98956,Tarkwa,GH,Africa/Accra
48.8765,2.18967,Rueil-Malmaison,FR,Europe/Paris
50.09019,8.4493,Hofheim am Taunus,DE,Europe/Berlin
33.42585,-6.00137,Oulmes,MA,Africa/Casablanca
44.89784,8.86374,Tortona,IT,Europe/Rome
45.16024,-93.08883,Lino Lakes,US,America/Chicago
-20.88231,55.4504,Saint-Denis,RE,Indian/Reunion
37.56667,140.11667,Inawashiro,JP,Asia/Tokyo
-11.94306,-76.70944,Chosica,PE,America/Lima
19.21667,73.08333,Dombivli,IN,Asia/Kolkata
43.91452,-69.96533,Brunswick,US,America/New_York
7.57944,-8.53778,New Yekepa,LR,Africa/Monrovia
43.50891,16.43915,Split,HR,Europe/Zagreb
18.87813,72.93924,Uran,IN,Asia/Kolkata
48.06919,11.37703,Gauting,DE,Europe/Berlin
38.13708,41.00817,Silvan,TR,Europe/Istanbul
31.96258,73.97117,Naushahra Virkan,PK,Asia/Karachi
48.25,16.4,Floridsdorf,AT,Europe/Vienna
-0.35817,42.54536,Kismayo,SO,Africa/Mogadishu
30.21121,74.4818,Malaut,IN,Asia/Kolkata
-27.4338,-65.61427,Aguilares,AR,America/Argentina/Tucuman
32.61603,44.02488,Karbala,IQ,Asia/Baghdad
37.95143,-91.77127,Rolla,US,America/Chicago
41.55838,-81.56929,Collinwood,US,America/New_York
29.21399,78.95693,Kashipur,IN,Asia/Kolkata
16.75973,-93.11308,Tuxtla,MX,America/Mexico_City
39.32288,-76.72803,Woodlawn,US,America/New_York
34.06635,-84.67837,Acworth,US,America/New_York
59.37722,28.19028,Narva,EE,Europe/Tallinn
0.76755,24.43973,Yangambi,CD,Africa/Lubumbashi
22.75218,72.68533,Kheda,IN,Asia/Kolkata
50.8,3.16667,Wevelgem,BE,Europe/Brussels
12.04161,75.35927,Talipparamba,IN,Asia/Kolkata
34.75856,136.13108,Ueno-ebisumachi,JP,Asia/Tokyo
50.82709,6.9747,Wesseling,DE,Europe/Berlin
34.85,117.33333,Taozhuang,CN,Asia/Shanghai
32.9156,-117.14392,Mira Mesa,US,America/Los_Angeles
47.83333,59.6,Shalqar,KZ,Asia/Aqtobe
36.08497,9.37082,Siliana,TN,Africa/Tunis
49.28669,1.00288,Elbeuf,FR,Europe/Paris
48.46458,9.22796,Pfullingen,DE,Europe/Berlin
26.2649,81.54855,Jais,IN,Asia/Kolkata
37.49073,-2.77259,Baza,ES,Europe/Madrid
47.56494,31.33078,Voznesensk,UA,Europe/Kiev
45.51667,4.86667,Vienne,FR,Europe/Paris
-22.92306,-53.13722,Loanda,BR,America/Sao_Paulo
13.65805,102.56365,Paoy Paet,KH,Asia/Phnom_Penh
40.87363,14.34085,Volla,IT,Europe/Rome
55.82737,-4.0573,Viewpark,GB,Europe/London
35.815,139.6853,Shimotoda,JP,Asia/Tokyo
-14.66463,-52.35558,Nova Xavantina,BR,America/Cuiaba
45.40008,-73.58248,Sainte-Catherine,CA,America/Toronto
53.95278,32.86389,Roslavl‚Äô,RU,Europe/Moscow
-38.16604,145.13643,Frankston South,AU,Australia/Melbourne
39.96348,-4.83076,Talavera de la Reina,ES,Europe/Madrid
-21.15,46.58333,Ikalamavony,MG,Indian/Antananarivo
40.92298,14.30935,Afragola,IT,Europe/Rome
13.48082,-86.58208,Somoto,NI,America/Managua
54.48147,53.47103,Oktyabr‚Äôskiy,RU,Asia/Yekaterinburg
18.00747,-76.78319,New Kingston,JM,America/Jamaica
48.79325,2.29275,Fontenay-aux-Roses,FR,Europe/Paris
47.83333,59.6,Shalqar,KZ,Asia/Aqtobe
25.92493,73.66633,Sojat,IN,Asia/Kolkata
35.21222,2.31889,Ksar Chellala,DZ,Africa/Algiers
20.22816,-103.5687,Zacoalco de Torres,MX,America/Mexico_City
42.52787,-70.92866,Peabody,US,America/New_York
55.67938,12.53463,Frederiksberg,DK,Europe/Copenhagen
38.10558,-1.86343,Caravaca,ES,Europe/Madrid
53.16167,6.76111,Hoogezand,NL,Europe/Amsterdam
37.31065,13.57661,Agrigento,IT,Europe/Rome
45.35,126.28333,Shuangcheng,CN,Asia/Shanghai
45.44694,8.62118,Novara,IT,Europe/Rome
38.17492,-122.2608,American Canyon,US,America/Los_Angeles
12.35275,121.06761,San Jose,PH,Asia/Manila
11.15583,42.7125,'Ali Sabieh,DJ,Africa/Djibouti
-8.05389,-34.88111,Recife,BR,America/Recife
59.33333,18.28333,Boo,SE,Europe/Stockholm
-31.4488,-60.93173,Esperanza,AR,America/Argentina/Cordoba
16.06213,76.0586,Hungund,IN,Asia/Kolkata
48.77644,2.29026,Sceaux,FR,Europe/Paris
31.82539,72.54064,Sillanwali,PK,Asia/Karachi
4.02219,101.02083,Teluk Intan,MY,Asia/Kuala_Lumpur
52.21099,7.02238,Gronau,DE,Europe/Berlin
47.83333,59.6,Shalqar,KZ,Asia/Aqtobe
18.57677,-72.22625,Croix-des-Bouquets,HT,America/Port-au-Prince
33.92866,-6.90656,Temara,MA,Africa/Casablanca
42.7392,-84.62081,Waverly,US,America/Detroit
49.28669,1.00288,Elbeuf,FR,Europe/Paris
13.48082,-86.58208,Somoto,NI,America/Managua
51.955,5.22778,Culemborg,NL,Europe/Amsterdam
5.27247,-3.59625,Bonoua,CI,Africa/Abidjan
50.75,2.25,Saint-Omer,FR,Europe/Paris
36.27462,4.85668,Bordj Zemoura,DZ,Africa/Algiers
27.9247,78.40102,Chharra,IN,Asia/Kolkata
18.03496,-66.8499,Yauco,PR,America/Puerto_Rico
38.38479,-0.76773,Novelda,ES,Europe/Madrid
55.39485,43.83992,Arzamas,RU,Europe/Moscow
42.8139,-1.64295,Segundo Ensanche,ES,Europe/Madrid
52.57583,6.61944,Hardenberg,NL,Europe/Amsterdam
20.22816,-103.5687,Zacoalco de Torres,MX,America/Mexico_City
57.97472,33.2525,Valday,RU,Europe/Moscow
26.2649,81.54855,Jais,IN,Asia/Kolkata
52.57583,6.61944,Hardenberg,NL,Europe/Amsterdam
-23.7975,-48.59278,Buri,BR,America/Sao_Paulo
38.47917,-1.325,Jumilla,ES,Europe/Madrid
6.15038,6.83042,Nkpor,NG,Africa/Lagos
-16.25,-69.08333,Yunguyo,PE,America/Lima
-11.94306,-76.70944,Chosica,PE,America/Lima
53.0233,-1.48119,Belper,GB,Europe/London
-3.74912,-73.25383,Iquitos,PE,America/Lima
39.32011,-76.51552,Rosedale,US,America/New_York
-19.32556,-41.25528,Resplendor,BR,America/Sao_Paulo
25.6439,77.9129,Narwar,IN,Asia/Kolkata
0.76755,24.43973,Yangambi,CD,Africa/Lubumbashi
35.82756,137.95378,Ina,JP,Asia/Tokyo
55.75556,60.70278,Ozersk,RU,Asia/Yekaterinburg
54.39635,24.04142,Alytus,LT,Europe/Vilnius
42.97086,-82.42491,Port Huron,US,America/Detroit
15.46063,99.89166,Thap Than,TH,Asia/Bangkok
41.0051,-73.78458,Scarsdale,US,America/New_York
19.32889,-99.32556,San Lorenzo Acopilco,MX,America/Mexico_City
50.79205,-1.08593,Southsea,GB,Europe/London
-23.85972,35.34722,Maxixe,MZ,Africa/Maputo
41.47892,-87.45476,Schererville,US,America/Chicago
16.75973,-93.11308,Tuxtla,MX,America/Mexico_City
46.09273,-88.64235,Iron River,US,America/Menominee
43.54072,-116.56346,Nampa,US,America/Boise
22.49396,-105.36369,Acaponeta,MX,America/Mazatlan
33.14447,47.3799,Darreh Shahr,IR,Asia/Tehran
44.92934,37.99117,Krymsk,RU,Europe/Moscow
35.50056,117.63083,Pingyi,CN,Asia/Shanghai
14.0823,98.19151,Dawei,MM,Asia/Yangon
49.28669,1.00288,Elbeuf,FR,Europe/Paris
46.7055,38.2739,Yeysk,RU,Europe/Moscow
43.83125,5.03586,Cavaillon,FR,Europe/Paris
12.97389,123.99333,Sorsogon,PH,Asia/Manila
48.49144,9.20427,Reutlingen,DE,Europe/Berlin
-37.9,145.18333,Wheelers Hill,AU,Australia/Melbourne
27.55898,68.21204,Larkana,PK,Asia/Karachi
50.74497,3.20639,Mouscron,BE,Europe/Brussels
26.68451,-80.66756,Belle Glade,US,America/New_York
17.06542,-96.72365,Oaxaca,MX,America/Mexico_City
23.1959,86.51499,Kenda,IN,Asia/Kolkata
36.06386,4.62744,El Achir,DZ,Africa/Algiers
54.03876,43.91385,Kovylkino,RU,Europe/Moscow
10.15031,-73.9614,El Copey,CO,America/Bogota
9.15093,-79.62098,Chilibre,PA,America/Panama
53.49389,-1.29243,Mexborough,GB,Europe/London
-8.73508,24.99798,Kamina,CD,Africa/Lubumbashi
43.11667,1.6,Pamiers,FR,Europe/Paris
-17.83333,48.41667,Ambatondrazaka,MG,Indian/Antananarivo
16.68911,98.50893,Myawadi,MM,Asia/Yangon
19.30157,72.85107,Bhayandar,IN,Asia/Kolkata
43.61092,3.87723,Montpellier,FR,Europe/Paris
51.21667,6.26667,Schwalmtal,DE,Europe/Berlin
32.52515,-93.75018,Shreveport,US,America/Chicago
51.12794,4.21372,Temse,BE,Europe/Brussels
10.58806,77.24779,Udumalaippettai,IN,Asia/Kolkata
0.76755,24.43973,Yangambi,CD,Africa/Lubumbashi
-10.90889,-37.03861,Barra dos Coqueiros,BR,America/Maceio
25.13915,73.06784,Sheoganj,IN,Asia/Kolkata
50.80019,7.20769,Siegburg,DE,Europe/Berlin
-19.32556,-41.25528,Resplendor,BR,America/Sao_Paulo
4.02219,101.02083,Teluk Intan,MY,Asia/Kuala_Lumpur
36.61033,-88.31476,Murray,US,America/Chicago
50.7236,-3.52751,Exeter,GB,Europe/London
-37.32167,-59.13316,Tandil,AR,America/Argentina/Buenos_Aires
55.1904,30.2049,Vitebsk,BY,Europe/Minsk
44.85278,65.50917,Kyzylorda,KZ,Asia/Qyzylorda
40.56754,-89.64066,Pekin,US,America/Chicago
46.51872,86.00214,Hoxtolgay,CN,Asia/Urumqi
35.06667,135.21667,Sasayama,JP,Asia/Tokyo
22.4711,88.1453,Pujali,IN,Asia/Kolkata
36.6009,126.665,Hongseong,KR,Asia/Seoul
11.84962,-86.19903,Jinotepe,NI,America/Managua
18.51957,73.85535,Pune,IN,Asia/Kolkata
6.95194,121.96361,Recodo,PH,Asia/Manila
30.21121,74.4818,Malaut,IN,Asia/Kolkata
44.43579,26.01649,Sector 6,RO,Europe/Bucharest
20.14298,-77.43532,Media Luna,CU,America/Havana
43.67681,4.63031,Arles,FR,Europe/Paris
51.35084,-1.99421,Devizes,GB,Europe/London
28.15112,-82.46148,Lutz,US,America/New_York
48.90982,2.45012,Bobigny,FR,Europe/Paris
32.9156,-117.14392,Mira Mesa,US,America/Los_Angeles
41.09246,45.36561,Qazax,AZ,Asia/Baku
55.63711,37.38115,Solntsevo,RU,Europe/Moscow
6.45407,3.39467,Lagos,NG,Africa/Lagos
45.78071,12.84052,Portogruaro,IT,Europe/Rome
28.98002,77.70636,Meerut,IN,Asia/Kolkata
27.85,112.9,Xiangtan,CN,Asia/Shanghai
8.43333,99.96667,Nakhon Si Thammarat,TH,Asia/Bangkok
27.9247,78.40102,Chharra,IN,Asia/Kolkata
49.5099,6.74549,Losheim,DE,Europe/Berlin
14.93333,-91.11667,Chichicastenango,GT,America/Guatemala
35.25064,-91.73625,Searcy,US,America/Chicago
36.76775,2.95924,Cheraga,DZ,Africa/Algiers
35.88264,-80.08199,Thomasville,US,America/New_York
9.82564,78.25795,Tiruppuvanam,IN,Asia/Kolkata
-44.39672,171.25364,Timaru,NZ,Pacific/Auckland
35.05266,-78.87836,Fayetteville,US,America/New_York
53.5942,25.8191,Novogrudok,BY,Europe/Minsk
53.6052,10.03988,Barmbek-Nord,DE,Europe/Berlin
-4.24444,-42.29444,Barras,BR,America/Fortaleza
40.24537,-75.64963,Pottstown,US,America/New_York
25.66795,85.83636,Dalsingh Sarai,IN,Asia/Kolkata
-21.42917,-45.94722,Alfenas,BR,America/Sao_Paulo
33.98154,-81.23621,Lexington,US,America/New_York
37.52487,-77.55777,Bon Air,US,America/New_York
-0.35817,42.54536,Kismayo,SO,Africa/Mogadishu
30.29184,71.67164,Qadirpur Ran,PK,Asia/Karachi
36.24624,139.07204,Fujioka,JP,Asia/Tokyo
50.7236,-3.52751,Exeter,GB,Europe/London
-3.20333,-52.20639,Altamira,BR,America/Santarem
36.91023,-121.75689,Watsonville,US,America/Los_Angeles
38.54491,-121.74052,Davis,US,America/Los_Angeles
41.29444,69.67639,Parkent,UZ,Asia/Tashkent
7.62789,4.74161,Ilesa,NG,Africa/Lagos
55.1904,30.2049,Vitebsk,BY,Europe/Minsk
54.39304,53.26023,Bavly,RU,Europe/Moscow
-4.24444,-42.29444,Barras,BR,America/Fortaleza
36.46917,10.78222,Beni Khiar,TN,Africa/Tunis
-27.50578,153.10236,Carindale,AU,Australia/Brisbane
44.75874,19.21437,Bijeljina,BA,Europe/Sarajevo
53.59337,9.47629,Stade,DE,Europe/Berlin
51.4781,57.3552,Kuvandyk,RU,Asia/Yekaterinburg
-19.65,47.31667,Antanifotsy,MG,Indian/Antananarivo
39.71734,-74.96933,Sicklerville,US,America/New_York
40.93333,73,Jalal-Abad,KG,Asia/Bishkek
-1.26753,116.82887,Balikpapan,ID,Asia/Makassar
47.46657,84.87144,Zaysan,KZ,Asia/Almaty
21.01858,-101.2591,Guanajuato,MX,America/Mexico_City
45.78071,12.84052,Portogruaro,IT,Europe/Rome
32.50611,120.14278,Jiangyan,CN,Asia/Shanghai
37.49073,-2.77259,Baza,ES,Europe/Madrid
25.13915,73.06784,Sheoganj,IN,Asia/Kolkata
6.95194,121.96361,Recodo,PH,Asia/Manila
11.85,38.01667,Debre Tabor,ET,Africa/Addis_Ababa
41.09822,120.74792,Nanpiao,CN,Asia/Shanghai
40.66482,122.22833,Yingkou,CN,Asia/Shanghai
25.95533,68.88871,Jhol,PK,Asia/Karachi
50.80019,7.20769,Siegburg,DE,Europe/Berlin
51.14942,15.00835,Zgorzelec,PL,Europe/Warsaw
48.98994,2.1699,Herblay,FR,Europe/Paris
41.6764,-91.58045,Coralville,US,America/Chicago
55.82885,-4.21376,Rutherglen,GB,Europe/London
-34.28853,146.05093,Griffith,AU,Australia/Sydney
45.79377,8.88104,Malnate,IT,Europe/Rome
20.21322,-100.88023,Salvatierra,MX,America/Mexico_City
51.38673,0.30367,Hartley,GB,Europe/London
41.75338,-86.11084,Granger,US,America/Indiana/Indianapolis
43.50891,16.43915,Split,HR,Europe/Zagreb
19.32932,-98.1664,Contla,MX,America/Mexico_City
44.73941,-93.12577,Rosemount,US,America/Chicago
53.53395,33.72798,Zhukovka,RU,Europe/Moscow
27.92333,118.53333,Pucheng,CN,Asia/Shanghai
-0.35817,42.54536,Kismayo,SO,Africa/Mogadishu
-2.13404,-79.59415,Milagro,EC,America/Guayaquil
-37.9,145.18333,Wheelers Hill,AU,Australia/Melbourne
41.48199,-81.79819,Lakewood,US,America/New_York
5.27247,-3.59625,Bonoua,CI,Africa/Abidjan
51.20219,7.36027,Radevormwald,DE,Europe/Berlin
48.35149,8.96317,Hechingen,DE,Europe/Berlin
45.51667,4.86667,Vienne,FR,Europe/Paris
34.75856,136.13108,Ueno-ebisumachi,JP,Asia/Tokyo
28.92694,78.23456,Bachhraon,IN,Asia/Kolkata
50.06,43.2379,Mikhaylovka,RU,Europe/Volgograd
26.2173,-80.22588,North Lauderdale,US,America/New_York
50.50301,13.63617,Most,CZ,Europe/Prague
50.76306,-1.29772,Cowes,GB,Europe/London
28.71271,77.656,Pilkhua,IN,Asia/Kolkata
15.45144,78.14797,Betamcherla,IN,Asia/Kolkata
48.98693,2.44892,Gonesse,FR,Europe/Paris
14.0823,98.19151,Dawei,MM,Asia/Yangon
60.2052,24.6522,Espoo,FI,Europe/Helsinki
-4.06667,37.73333,Same,TZ,Africa/Dar_es_Salaam
51.19139,6.51352,Korschenbroich,DE,Europe/Berlin
45.99194,29.41824,Artsyz,UA,Europe/Kiev
45.9836,12.70038,Cordenons,IT,Europe/Rome
43.54072,-116.56346,Nampa,US,America/Boise
45.40008,-73.58248,Sainte-Catherine,CA,America/Toronto
34.5624,38.28402,Tadmur,SY,Asia/Damascus
50.9803,11.32903,Weimar,DE,Europe/Berlin
51.64316,-0.36053,Bushey,GB,Europe/London
14.95472,120.89694,Baliuag,PH,Asia/Manila
53.6052,10.03988,Barmbek-Nord,DE,Europe/Berlin
28.90054,-81.26367,Deltona,US,America/New_York
28.90054,-81.26367,Deltona,US,America/New_York
33.41012,-91.06177,Greenville,US,America/Chicago
51.88333,8.51667,Verl,DE,Europe/Berlin
5.30383,-1.98956,Tarkwa,GH,Africa/Accra
43.16547,-77.70066,Gates-North Gates,US,America/New_York
34.56861,105.89333,Beidao,CN,Asia/Shanghai
48.86667,2.08333,Marly-le-Roi,FR,Europe/Paris
30.46907,70.96699,Kot Addu,PK,Asia/Karachi
43.61092,3.87723,Montpellier,FR,Europe/Paris
36.82167,128.63083,Eisen,KR,Asia/Seoul
24.28859,116.11768,Meizhou,CN,Asia/Shanghai
19.32889,-99.32556,San Lorenzo Acopilco,MX,America/Mexico_City
24.41288,76.56719,Aklera,IN,Asia/Kolkata
38.96667,-0.18333,Gandia,ES,Europe/Madrid
35.815,139.6853,Shimotoda,JP,Asia/Tokyo
6.33444,124.95278,Tupi,PH,Asia/Manila
41.24255,-82.61573,Norwalk,US,America/New_York
48.98994,2.1699,Herblay,FR,Europe/Paris
20.74122,-100.44843,Santa Rosa Jauregui,MX,America/Mexico_City
42.50729,1.53414,les Escaldes,AD,Europe/Andorra
9.82564,78.25795,Tiruppuvanam,IN,Asia/Kolkata
-2.13404,-79.59415,Milagro,EC,America/Guayaquil
-10.90889,-37.03861,Barra dos Coqueiros,BR,America/Maceio
36.19278,117.65694,Laiwu,CN,Asia/Shanghai
51.78967,1.15597,Clacton-on-Sea,GB,Europe/London
-23.85972,35.34722,Maxixe,MZ,Africa/Maputo
49.28669,1.00288,Elbeuf,FR,Europe/Paris
-30.60106,-71.19901,Ovalle,CL,America/Santiago
48.49144,9.20427,Reutlingen,DE,Europe/Berlin
-7.0981,109.3243,Randudongkal,ID,Asia/Jakarta
13.56667,-15.6,Farafenni,GM,Africa/Banjul
34.15429,3.50309,Messaad,DZ,Africa/Algiers
55.67938,12.53463,Frederiksberg,DK,Europe/Copenhagen
42.4251,-71.06616,Malden,US,America/New_York
27.92333,118.53333,Pucheng,CN,Asia/Shanghai
34.25,135.31667,Iwade,JP,Asia/Tokyo
44.75874,19.21437,Bijeljina,BA,Europe/Sarajevo
32.52515,-93.75018,Shreveport,US,America/Chicago
51.24197,4.82313,Lille,BE,Europe/Brussels
38.07789,13.44275,Villabate,IT,Europe/Rome
27.9247,78.40102,Chharra,IN,Asia/Kolkata
-19.7625,-44.31389,Esmeraldas,BR,America/Sao_Paulo
14.0823,98.19151,Dawei,MM,Asia/Yangon
46.65581,32.6178,Kherson,UA,Europe/Kiev
-23.85972,35.34722,Maxixe,MZ,Africa/Maputo
-10.91111,-37.07167,Aracaju,BR,America/Maceio
41.55838,-81.56929,Collinwood,US,America/New_York
10.10649,76.35484,Alwaye,IN,Asia/Kolkata
33.35283,-111.78903,Gilbert,US,America/Phoenix
23.02677,113.13148,Foshan,CN,Asia/Shanghai
45.49428,-122.86705,Aloha,US,America/Los_Angeles
34.81667,137.4,Toyokawa,JP,Asia/Tokyo
39.43534,-84.20299,Lebanon,US,America/New_York
3.3285,99.1625,Tebingtinggi,ID,Asia/Jakarta
12.35275,121.06761,San Jose,PH,Asia/Manila
55.54028,89.20083,Sharypovo,RU,Asia/Krasnoyarsk
53.14657,140.72287,Nikolayevsk-on-Amure,RU,Asia/Vladivostok
44.75874,19.21437,Bijeljina,BA,Europe/Sarajevo
40.24537,-75.64963,Pottstown,US,America/New_York
41.27194,123.17306,Liaoyang,CN,Asia/Shanghai
31.28092,74.85849,Patti,IN,Asia/Kolkata
35.05266,-78.87836,Fayetteville,US,America/New_York
34.25,135.31667,Iwade,JP,Asia/Tokyo
6.9909,79.883,Hendala,LK,Asia/Colombo
-33.75881,150.99292,Baulkham Hills,AU,Australia/Sydney
49.28669,1.00288,Elbeuf,FR,Europe/Paris
27.34089,117.4831,Shaowu,CN,Asia/Shanghai
25.80565,68.49143,Bhit Shah,PK,Asia/Karachi
25.66795,85.83636,Dalsingh Sarai,IN,Asia/Kolkata
36.06386,4.62744,El Achir,DZ,Africa/Algiers
55.39485,43.83992,Arzamas,RU,Europe/Moscow
3.51667,11.5,Mbalmayo,CM,Africa/Douala
-6.48167,106.85417,Cibinong,ID,Asia/Jakarta
36.21544,65.93249,Sar-e Pul,AF,Asia/Kabul
43.31667,-2.68333,Gernika-Lumo,ES,Europe/Madrid
-17.73648,168.31366,Port-Vila,VU,Pacific/Efate
22.83957,91.84128,Manikchari,BD,Asia/Dhaka
50.75,2.25,Saint-Omer,FR,Europe/Paris
31.82539,72.54064,Sillanwali,PK,Asia/Karachi
44.31771,9.32241,Chiavari,IT,Europe/Rome
40.82232,-74.15987,Nutley,US,America/New_York
38.55632,69.01354,Vahdat,TJ,Asia/Dushanbe
35.06667,135.21667,Sasayama,JP,Asia/Tokyo
-3.14306,-58.44417,Itacoatiara,BR,America/Manaus
55.82885,-4.21376,Rutherglen,GB,Europe/London
25.92127,86.79271,Madhipura,IN,Asia/Kolkata
51.20219,7.36027,Radevormwald,DE,Europe/Berlin
51.67822,33.9162,Hlukhiv,UA,Europe/Kiev
40.5576,-74.28459,Woodbridge,US,America/New_York
30.21121,74.4818,Malaut,IN,Asia/Kolkata
-20.25333,-43.80139,Itabirito,BR,America/Sao_Paulo
49.28669,1.00288,Elbeuf,FR,Europe/Paris
32.54278,111.50861,Danjiangkou,CN,Asia/Shanghai
55.85,37.56667,Likhobory,RU,Europe/Moscow
-4.24444,-42.29444,Barras,BR,America/Fortaleza
35.48199,137.02166,Minokamo,JP,Asia/Tokyo
36.33011,138.89585,Annaka,JP,Asia/Tokyo
20.88098,75.11937,Parola,IN,Asia/Kolkata
-44.39672,171.25364,Timaru,NZ,Pacific/Auckland
51.20219,7.36027,Radevormwald,DE,Europe/Berlin
-27.4338,-65.61427,Aguilares,AR,America/Argentina/Tucuman
51.64316,-0.36053,Bushey,GB,Europe/London
-22.57306,-47.1725,Artur Nogueira,BR,America/Sao_Paulo
60.18427,24.95034,Kallio,FI,Europe/Helsinki
13.56667,-15.6,Farafenni,GM,Africa/Banjul
48.90982,2.45012,Bobigny,FR,Europe/Paris
33.43443,-5.22126,Azrou,MA,Africa/Casablanca
10.20898,123.758,Naga,PH,Asia/Manila
51.67822,33.9162,Hlukhiv,UA,Europe/Kiev
49.41029,38.15035,Svatove,UA,Europe/Zaporozhye
17.30858,97.01124,Kyaikto,MM,Asia/Yangon
40.57788,-73.95958,Brighton Beach,US,America/New_York
51.21667,6.26667,Schwalmtal,DE,Europe/Berlin
47.92526,-97.03285,Grand Forks,US,America/Chicago
21.59983,71.21169,Amreli,IN,Asia/Kolkata
39.32011,-76.51552,Rosedale,US,America/New_York
38.40917,112.73333,Xinzhou,CN,Asia/Shanghai
42.64031,125.51176,Dongfeng,CN,Asia/Shanghai
43.54072,-116.56346,Nampa,US,America/Boise
52.2,8.63333,Kirchlengern,DE,Europe/Berlin
42.28639,18.84,Budva,ME,Europe/Podgorica
53.16167,6.76111,Hoogezand,NL,Europe/Amsterdam
24.41288,76.56719,Aklera,IN,Asia/Kolkata
33.37526,74.3092,Rajaori,IN,Asia/Kolkata
0.46005,34.11169,Busia,KE,Africa/Nairobi
25.87498,86.59611,Saharsa,IN,Asia/Kolkata
48.8449,17.22635,Skalica,SK,Europe/Bratislava
39.57582,-105.11221,Ken Caryl,US,America/Denver
39.45621,-77.96389,Martinsburg,US,America/New_York
-27.50578,153.10236,Carindale,AU,Australia/Brisbane
31.71667,73.38333,Sangla Hill,PK,Asia/Karachi
20.14298,-77.43532,Media Luna,CU,America/Havana
35.30889,139.55028,Kamakura,JP,Asia/Tokyo
61.78491,34.34691,Petrozavodsk,RU,Europe/Moscow
-37.9,145.18333,Wheelers Hill,AU,Australia/Melbourne
34.14251,-118.25508,Glendale,US,America/Los_Angeles
43.71032,-1.05366,Dax,FR,Europe/Paris
10.29085,105.75635,Sa Dec,VN,Asia/Ho_Chi_Minh
41.50343,-74.01042,Newburgh,US,America/New_York
14.64056,104.64992,Kantharalak,TH,Asia/Bangkok
32.35126,-95.30106,Tyler,US,America/Chicago
-6.8,39.25,Magomeni,TZ,Africa/Dar_es_Salaam
-54.8,-68.3,Ushuaia,AR,America/Argentina/Ushuaia
10.7375,122.9666,Talisay,PH,Asia/Manila
32.55531,76.12647,Chamba,IN,Asia/Kolkata
21.01858,-101.2591,Guanajuato,MX,America/Mexico_City
47.64995,-117.23991,Opportunity,US,America/Los_Angeles
-32.05251,115.88782,Willetton,AU,Australia/Perth
37.60876,-77.37331,Mechanicsville,US,America/New_York
40.53123,17.58522,Francavilla Fontana,IT,Europe/Rome
51.82721,107.60627,Ulan-Ude,RU,Asia/Irkutsk
50.5107,18.30056,Strzelce Opolskie,PL,Europe/Warsaw
-33.75881,150.99292,Baulkham Hills,AU,Australia/Sydney
49.07866,30.96755,Zvenihorodka,UA,Europe/Kiev
3.31332,117.59152,Tarakan,ID,Asia/Makassar
53.78333,-1.06667,Selby,GB,Europe/London
37.51803,15.00913,Misterbianco,IT,Europe/Rome
-31.25033,-61.4867,Rafaela,AR,America/Argentina/Cordoba
56.9083,60.8019,Beryozovsky,RU,Asia/Yekaterinburg
12.97389,123.99333,Sorsogon,PH,Asia/Manila
37.58105,29.26639,Serinhisar,TR,Europe/Istanbul
49.28669,1.00288,Elbeuf,FR,Europe/Paris
50.8,3.16667,Wevelgem,BE,Europe/Brussels
52.14,5.58472,Barneveld,NL,Europe/Amsterdam
20.88953,-156.47432,Kahului,US,Pacific/Honolulu
41.80753,-87.65644,New City,US,America/Chicago
36.53333,136.61667,Nonoichi,JP,Asia/Tokyo
41.57439,24.71204,Smolyan,BG,Europe/Sofia
48.86667,2.08333,Marly-le-Roi,FR,Europe/Paris
55.39485,43.83992,Arzamas,RU,Europe/Moscow
14.62072,74.83554,Sirsi,IN,Asia/Kolkata
45.16024,-93.08883,Lino Lakes,US,America/Chicago
41.47892,-87.45476,Schererville,US,America/Chicago
25.75728,75.37991,Deoli,IN,Asia/Kolkata
60.18427,24.95034,Kallio,FI,Europe/Helsinki
22.98212,-80.58556,Corralillo,CU,America/Havana
15.45144,78.14797,Betamcherla,IN,Asia/Kolkata
38.91817,-78.19444,Front Royal,US,America/New_York
31.92923,34.86563,Ramla,IL,Asia/Jerusalem
-10.91111,-37.07167,Aracaju,BR,America/Maceio
53.14657,140.72287,Nikolayevsk-on-Amure,RU,Asia/Vladivostok
24.05979,77.40858,Leteri,IN,Asia/Kolkata
13.51825,99.95469,Damnoen Saduak,TH,Asia/Bangkok
56.11281,69.49015,Ishim,RU,Asia/Yekaterinburg
39.57582,-105.11221,Ken Caryl,US,America/Denver
-15.21194,-75.11028,Minas de Marcona,PE,America/Lima
24.05979,77.40858,Leteri,IN,Asia/Kolkata
55.67938,12.53463,Frederiksberg,DK,Europe/Copenhagen
46.18396,6.10237,Onex,CH,Europe/Zurich
7.6,4.18333,Olupona,NG,Africa/Lagos
52.57583,6.61944,Hardenberg,NL,Europe/Amsterdam
50.75,2.25,Saint-Omer,FR,Europe/Paris
19.64745,-102.04897,Paracho de Verduzco,MX,America/Mexico_City
19.30157,72.85107,Bhayandar,IN,Asia/Kolkata
22.19303,88.18466,Diamond Harbour,IN,Asia/Kolkata
39.32011,-76.51552,Rosedale,US,America/New_York
36.76639,3.47717,Boumerdas,DZ,Africa/Algiers
49.88307,-119.48568,Kelowna,CA,America/Vancouver
44.59445,11.04979,Castelfranco Emilia,IT,Europe/Rome
-20.88231,55.4504,Saint-Denis,RE,Indian/Reunion
33.95015,-118.03917,South Whittier,US,America/Los_Angeles
34.14251,-118.25508,Glendale,US,America/Los_Angeles
27.92333,118.53333,Pucheng,CN,Asia/Shanghai
20.22816,-103.5687,Zacoalco de Torres,MX,America/Mexico_City
28.92694,78.23456,Bachhraon,IN,Asia/Kolkata
-25.54073,152.70493,Maryborough,AU,Australia/Brisbane
42.93369,-72.27814,Keene,US,America/New_York
52.41667,0.75,Thetford,GB,Europe/London
27.76056,-15.58602,Maspalomas,ES,Atlantic/Canary
51.20219,7.36027,Radevormwald,DE,Europe/Berlin
32.65246,51.67462,Isfahan,IR,Asia/Tehran
35.815,139.6853,Shimotoda,JP,Asia/Tokyo
40.93333,73,Jalal-Abad,KG,Asia/Bishkek
11.12018,76.11996,Manjeri,IN,Asia/Kolkata
18.00747,-76.78319,New Kingston,JM,America/Jamaica
37.73604,-120.93549,Riverbank,US,America/Los_Angeles
16.75973,-93.11308,Tuxtla,MX,America/Mexico_City
13.70727,9.15013,Mirriah,NE,Africa/Niamey
39.43534,-84.20299,Lebanon,US,America/New_York
-19.65,47.31667,Antanifotsy,MG,Indian/Antananarivo
-2.13404,-79.59415,Milagro,EC,America/Guayaquil
52.14,5.58472,Barneveld,NL,Europe/Amsterdam
-23.85972,35.34722,Maxixe,MZ,Africa/Maputo
41.91886,8.73812,Ajaccio,FR,Europe/Paris
7.83389,-72.47417,Villa del Rosario,CO,America/Bogota
-4.24444,-42.29444,Barras,BR,America/Fortaleza
49.03685,8.70745,Bretten,DE,Europe/Berlin
-8.66667,-35.71667,Catende,BR,America/Recife
-31.95224,115.8614,Perth,AU,Australia/Perth
16.75973,-93.11308,Tuxtla,MX,America/Mexico_City
40.87363,14.34085,Volla,IT,Europe/Rome
37.95143,-91.77127,Rolla,US,America/Chicago
37.71715,-122.40433,Visitacion Valley,US,America/Los_Angeles
10.15031,-73.9614,El Copey,CO,America/Bogota
-19.7625,-44.31389,Esmeraldas,BR,America/Sao_Paulo
52.71083,5.74861,Emmeloord,NL,Europe/Amsterdam
42.7,27.25,Aytos,BG,Europe/Sofia
16.0567,103.65309,Roi Et,TH,Asia/Bangkok
31.92923,34.86563,Ramla,IL,Asia/Jerusalem
44.89784,8.86374,Tortona,IT,Europe/Rome
38.96667,-0.18333,Gandia,ES,Europe/Madrid
40.72371,-73.95097,Greenpoint,US,America/New_York
48,-4.1,Quimper,FR,Europe/Paris
7.50251,5.06258,Igbara-Odo,NG,Africa/Lagos
42.58342,-71.8023,Fitchburg,US,America/New_York
44.43579,26.01649,Sector 6,RO,Europe/Bucharest
65.93381,111.4834,Aykhal,RU,Asia/Yakutsk
34.09668,-117.71978,Claremont,US,America/Los_Angeles
42.50729,1.53414,les Escaldes,AD,Europe/Andorra
28.92694,78.23456,Bachhraon,IN,Asia/Kolkata
60.18427,24.95034,Kallio,FI,Europe/Helsinki
55.85,37.56667,Likhobory,RU,Europe/Moscow
56.56317,-2.58736,Arbroath,GB,Europe/London
41.15612,1.10687,Reus,ES,Europe/Madrid
-10.91111,-37.07167,Aracaju,BR,America/Maceio
41.77583,140.73667,Hakodate,JP,Asia/Tokyo
16.455,120.5875,La Trinidad,PH,Asia/Manila
13.44581,101.18445,Phanat Nikhom,TH,Asia/Bangkok
14.53767,46.83187,Ataq,YE,Asia/Aden
-22.9,44.53333,Sakaraha,MG,Indian/Antananarivo
21.01858,-101.2591,Guanajuato,MX,America/Mexico_City
52.41667,0.75,Thetford,GB,Europe/London
41.9001,-71.08977,Taunton,US,America/New_York
52.14,5.58472,Barneveld,NL,Europe/Amsterdam
40.78206,72.34424,Andijon,UZ,Asia/Tashkent
16.06213,76.0586,Hungund,IN,Asia/Kolkata
14.0823,98.19151,Dawei,MM,Asia/Yangon
13.65805,102.56365,Paoy Paet,KH,Asia/Phnom_Penh
-26.22861,-52.67056,Pato Branco,BR,America/Sao_Paulo
23.73333,114.68333,Heyuan,CN,Asia/Shanghai
53.94313,10.30215,Bad Segeberg,DE,Europe/Berlin
32.9156,-117.14392,Mira Mesa,US,America/Los_Angeles
8.56697,123.33471,Dipolog,PH,Asia/Manila
37.95143,-91.77127,Rolla,US,America/Chicago
65.93381,111.4834,Aykhal,RU,Asia/Yakutsk
7.6,4.18333,Olupona,NG,Africa/Lagos
47.76232,-122.2054,Bothell,US,America/Los_Angeles
35.88264,-80.08199,Thomasville,US,America/New_York
34.75856,136.13108,Ueno-ebisumachi,JP,Asia/Tokyo
51.65333,5.2875,Vught,NL,Europe/Amsterdam
23.02677,113.13148,Foshan,CN,Asia/Shanghai
38.91817,-78.19444,Front Royal,US,America/New_York
-21.44345,-65.71875,Tupiza,BO,America/La_Paz
43.35071,46.10925,Gudermes,RU,Europe/Moscow
48.52961,12.16179,Landshut,DE,Europe/Berlin
54.60528,18.34717,Reda,PL,Europe/Warsaw
43.35071,46.10925,Gudermes,RU,Europe/Moscow
41.09246,45.36561,Qazax,AZ,Asia/Baku
32.42067,-104.22884,Carlsbad,US,America/Denver
25.80565,68.49143,Bhit Shah,PK,Asia/Karachi
35,136.51667,Komono,JP,Asia/Tokyo
27.85,112.9,Xiangtan,CN,Asia/Shanghai
15.5439,73.7553,Calangute,IN,Asia/Kolkata
36.53333,136.61667,Nonoichi,JP,Asia/Tokyo
42,21.32778,Saraj,MK,Europe/Skopje
-21.98333,16.91667,Okahandja,NA,Africa/Windhoek
45.50369,11.412,Montecchio Maggiore-Alte Ceccato,IT,Europe/Rome
24.41288,76.56719,Aklera,IN,Asia/Kolkata
32.9156,-117.14392,Mira Mesa,US,America/Los_Angeles
42.8334,-80.38297,Norfolk County,CA,America/Toronto
20.74122,-100.44843,Santa Rosa Jauregui,MX,America/Mexico_City
-7.51611,109.05389,Wangon,ID,Asia/Jakarta
48.35693,10.98461,Friedberg,DE,Europe/Berlin
50.09019,8.4493,Hofheim am Taunus,DE,Europe/Berlin
41.16704,-73.20483,Bridgeport,US,America/New_York
48.77644,2.29026,Sceaux,FR,Europe/Paris
35.06544,1.04945,Frenda,DZ,Africa/Algiers
10.13361,124.84472,Maasin,PH,Asia/Manila
61.72744,17.10558,Hudiksvall,SE,Europe/Stockholm
33.50921,-111.89903,Scottsdale,US,America/Phoenix
33.54428,-84.23381,Stockbridge,US,America/New_York
47.90771,106.88324,Ulan Bator,MN,Asia/Ulaanbaatar
41.55947,14.66737,Campobasso,IT,Europe/Rome
41.54566,-71.29144,Middletown,US,America/New_York
59.33333,18.28333,Boo,SE,Europe/Stockholm
46.67535,5.55575,Lons-le-Saunier,FR,Europe/Paris
45.53069,9.40531,Gorgonzola,IT,Europe/Rome
34.25807,-88.70464,Tupelo,US,America/Chicago
49.41029,38.15035,Svatove,UA,Europe/Zaporozhye
-38.16604,145.13643,Frankston South,AU,Australia/Melbourne
43.32686,-2.98884,Leioa,ES,Europe/Madrid
40.63316,-74.13653,Port Richmond,US,America/New_York
45.75279,130.57211,Boli,CN,Asia/Shanghai
40.49748,44.7662,Hrazdan,AM,Asia/Yerevan
51.78771,56.36091,Saraktash,RU,Asia/Yekaterinburg
23.02677,113.13148,Foshan,CN,Asia/Shanghai
50.82882,-0.32247,Lancing,GB,Europe/London
41.09246,45.36561,Qazax,AZ,Asia/Baku
7.06273,-1.4001,Mampong,GH,Africa/Accra
-34.28853,146.05093,Griffith,AU,Australia/Sydney
47.83333,59.6,Shalqar,KZ,Asia/Aqtobe
35.20889,111.73861,Changzhi,CN,Asia/Shanghai
18.00747,-76.78319,New Kingston,JM,America/Jamaica
45.0408,-93.263,Columbia Heights,US,America/Chicago
38.13708,41.00817,Silvan,TR,Europe/Istanbul
22.98212,-80.58556,Corralillo,CU,America/Havana
34.65918,109.22921,Yanliang,CN,Asia/Shanghai
65.93381,111.4834,Aykhal,RU,Asia/Yakutsk
42.24113,-88.3162,Crystal Lake,US,America/Chicago
35.30889,139.55028,Kamakura,JP,Asia/Tokyo
55.85,37.56667,Likhobory,RU,Europe/Moscow
-28.81833,-52.51028,Soledade,BR,America/Sao_Paulo
53.46506,-1.47217,Chapletown,GB,Europe/London
40.72816,-74.07764,Jersey City,US,America/New_York
48.78232,9.17702,Stuttgart,DE,Europe/Berlin
1.6,103.81667,Ulu Tiram,MY,Asia/Kuala_Lumpur
46.75451,33.34864,Nova Kakhovka,UA,Europe/Kiev
7.50251,5.06258,Igbara-Odo,NG,Africa/Lagos
51.47805,6.8625,Oberhausen,DE,Europe/Berlin
32.44874,-99.73314,Abilene,US,America/Chicago
37.08819,-8.2503,Albufeira,PT,Europe/Lisbon
34.31,-2.16,Jerada,MA,Africa/Casablanca
48.86667,2.08333,Marly-le-Roi,FR,Europe/Paris
21.01858,-101.2591,Guanajuato,MX,America/Mexico_City
48.98994,2.1699,Herblay,FR,Europe/Paris
5.20856,-74.73584,Honda,CO,America/Bogota
13.73417,-89.71472,Sonzacate,SV,America/El_Salvador
33.37526,74.3092,Rajaori,IN,Asia/Kolkata
4.73245,-74.26419,Madrid,CO,America/Bogota
35.8,137.23333,Gero,JP,Asia/Tokyo
54.48147,53.47103,Oktyabr‚Äôskiy,RU,Asia/Yekaterinburg
55.85,37.56667,Likhobory,RU,Europe/Moscow
31.64615,120.74221,Changshu City,CN,Asia/Shanghai
48.90982,2.45012,Bobigny,FR,Europe/Paris
35.06667,135.21667,Sasayama,JP,Asia/Tokyo
44.31771,9.32241,Chiavari,IT,Europe/Rome
32.42067,-104.22884,Carlsbad,US,America/Denver
-31.25033,-61.4867,Rafaela,AR,America/Argentina/Cordoba
50.71229,4.52529,Rixensart,BE,Europe/Brussels
35.72917,10.58082,Msaken,TN,Africa/Tunis
49.5099,6.74549,Losheim,DE,Europe/Berlin
48.98333,2.61667,Mitry-Mory,FR,Europe/Paris
-21.205,-41.88778,Itaperuna,BR,America/Sao_Paulo
7.6,4.18333,Olupona,NG,Africa/Lagos
36.20829,-115.98391,Pahrump,US,America/Los_Angeles
-21.41222,-42.19667,Miracema,BR,America/Sao_Paulo
-7.76667,35.7,Iringa,TZ,Africa/Dar_es_Salaam
-34.64167,-60.47389,Chacabuco,AR,America/Argentina/Buenos_Aires
42.06166,-1.60452,Tudela,ES,Europe/Madrid
51.38673,0.30367,Hartley,GB,Europe/London
37.49073,-2.77259,Baza,ES,Europe/Madrid
37.19723,122.05228,Tianfu,CN,Asia/Shanghai
34.15429,3.50309,Messaad,DZ,Africa/Algiers
39.57582,-105.11221,Ken Caryl,US,America/Denver
35.05266,-78.87836,Fayetteville,US,America/New_York
38.72706,-9.24671,Carnaxide,PT,Europe/Lisbon
10.7375,122.9666,Talisay,PH,Asia/Manila
32.87533,71.57118,Daud Khel,PK,Asia/Karachi
14.0823,98.19151,Dawei,MM,Asia/Yangon
-4.06667,37.73333,Same,TZ,Africa/Dar_es_Salaam
56.9083,60.8019,Beryozovsky,RU,Asia/Yekaterinburg
36.82167,128.63083,Eisen,KR,Asia/Seoul
15.46063,99.89166,Thap Than,TH,Asia/Bangkok
9.92787,-84.13722,San Rafael,CR,America/Costa_Rica
44.22639,22.53083,Negotin,RS,Europe/Belgrade
47.48444,36.25361,Polohy,UA,Europe/Zaporozhye
4.73245,-74.26419,Madrid,CO,America/Bogota
23.07492,88.28637,Pandua,IN,Asia/Kolkata
33.08014,-83.2321,Milledgeville,US,America/New_York
40.93333,73,Jalal-Abad,KG,Asia/Bishkek
54.90083,38.07083,Stupino,RU,Europe/Moscow
38.45598,48.87498,Astara,AZ,Asia/Baku
14.62578,121.12251,Antipolo,PH,Asia/Manila
37.05944,37.3825,Gaziantep,TR,Europe/Istanbul
47.30997,8.52462,Adliswil,CH,Europe/Zurich
57.97472,33.2525,Valday,RU,Europe/Moscow
43.86682,-79.2663,Markham,CA,America/Toronto
47.4943,-122.24092,Bryn Mawr-Skyway,US,America/Los_Angeles
42.64031,125.51176,Dongfeng,CN,Asia/Shanghai
29.22254,79.5286,Haldwani,IN,Asia/Kolkata
33.52253,-117.70755,Laguna Niguel,US,America/Los_Angeles
32.42067,-104.22884,Carlsbad,US,America/Denver
42.93369,-72.27814,Keene,US,America/New_York
30.21121,74.4818,Malaut,IN,Asia/Kolkata
54.90083,38.07083,Stupino,RU,Europe/Moscow
8.56697,123.33471,Dipolog,PH,Asia/Manila
24.41288,76.56719,Aklera,IN,Asia/Kolkata
-6.48167,106.85417,Cibinong,ID,Asia/Jakarta
51.62907,-0.74934,High Wycombe,GB,Europe/London
43.71032,-1.05366,Dax,FR,Europe/Paris
22.75218,72.68533,Kheda,IN,Asia/Kolkata
53.0233,-1.48119,Belper,GB,Europe/London
50.74497,3.20639,Mouscron,BE,Europe/Brussels
68.79833,16.54165,Harstad,NO,Europe/Oslo
36.64852,51.49621,Nowshahr,IR,Asia/Tehran
35.05266,-78.87836,Fayetteville,US,America/New_York
11.84962,-86.19903,Jinotepe,NI,America/Managua
64.5635,39.8302,Severodvinsk,RU,Europe/Moscow
6.45407,3.39467,Lagos,NG,Africa/Lagos
43.2907,5.4384,Marseille 11,FR,Europe/Paris
22.75218,72.68533,Kheda,IN,Asia/Kolkata
-33.59217,-70.6996,San Bernardo,CL,America/Santiago
6.84019,79.87116,Dehiwala-Mount Lavinia,LK,Asia/Colombo
38.06084,-97.92977,Hutchinson,US,America/Chicago
40.68066,-73.47429,Massapequa,US,America/New_York
-10.91722,-37.65,Lagarto,BR,America/Maceio
8.62261,-70.20749,Barinas,VE,America/Caracas
30.76468,74.12286,Kanganpur,PK,Asia/Karachi
33.86419,48.26258,Aleshtar,IR,Asia/Tehran
52.21099,7.02238,Gronau,DE,Europe/Berlin
36.20389,127.08472,Nonsan,KR,Asia/Seoul
29.22254,79.5286,Haldwani,IN,Asia/Kolkata
29.21399,78.95693,Kashipur,IN,Asia/Kolkata
8.35122,-62.64102,Ciudad Guayana,VE,America/Caracas
40.65538,-74.38987,Scotch Plains,US,America/New_York
45.44868,-73.81669,Pointe-Claire,CA,America/Toronto
-0.71667,-48.52333,Soure,BR,America/Belem
60.18427,24.95034,Kallio,FI,Europe/Helsinki
32.52515,-93.75018,Shreveport,US,America/Chicago
34.09611,-118.10583,San Gabriel,US,America/Los_Angeles
14.37395,100.48528,Bang Ban,TH,Asia/Bangkok
38.91817,-78.19444,Front Royal,US,America/New_York
68.79833,16.54165,Harstad,NO,Europe/Oslo
39.45621,-77.96389,Martinsburg,US,America/New_York
45.44694,8.62118,Novara,IT,Europe/Rome
-2.90055,-79.00453,Cuenca,EC,America/Guayaquil
54.58048,16.86194,Ustka,PL,Europe/Warsaw
-22.92306,-53.13722,Loanda,BR,America/Sao_Paulo
53.51684,-113.3187,Sherwood Park,CA,America/Edmonton
-2.90055,-79.00453,Cuenca,EC,America/Guayaquil
52.21099,7.02238,Gronau,DE,Europe/Berlin
42,21.32778,Saraj,MK,Europe/Skopje
33.44872,-86.78777,Vestavia Hills,US,America/Chicago
5.4709,100.24529,Batu Feringgi,MY,Asia/Kuala_Lumpur
-7.54972,110.71639,Ngemplak,ID,Asia/Jakarta
41.82143,41.77921,Kobuleti,GE,Asia/Tbilisi
52.61131,13.31783,Hermsdorf,DE,Europe/Berlin
33.50921,-111.89903,Scottsdale,US,America/Phoenix
9.82564,78.25795,Tiruppuvanam,IN,Asia/Kolkata
-38.65333,178.00417,Gisborne,NZ,Pacific/Auckland
-4.06667,37.73333,Same,TZ,Africa/Dar_es_Salaam
52.86147,9.5926,Walsrode,DE,Europe/Berlin
26.2649,81.54855,Jais,IN,Asia/Kolkata
45.53069,9.40531,Gorgonzola,IT,Europe/Rome
53.83333,-2.98333,Poulton-le-Fylde,GB,Europe/London
48.46458,9.22796,Pfullingen,DE,Europe/Berlin
41.09246,45.36561,Qazax,AZ,Asia/Baku
38.10558,-1.86343,Caravaca,ES,Europe/Madrid
35.85,117.7,Dongdu,CN,Asia/Shanghai
53.81667,-3.05,Blackpool,GB,Europe/London
18.00747,-76.78319,New Kingston,JM,America/Jamaica
38.38479,-0.76773,Novelda,ES,Europe/Madrid
38.96372,-76.99081,Chillum,US,America/New_York
35.82756,137.95378,Ina,JP,Asia/Tokyo
8.43333,99.96667,Nakhon Si Thammarat,TH,Asia/Bangkok
-38.65333,178.00417,Gisborne,NZ,Pacific/Auckland
49.65186,26.97253,Krasyliv,UA,Europe/Kiev
33.95015,-118.03917,South Whittier,US,America/Los_Angeles
48,-4.1,Quimper,FR,Europe/Paris
7.06273,-1.4001,Mampong,GH,Africa/Accra
10.7375,122.9666,Talisay,PH,Asia/Manila
51.78967,1.15597,Clacton-on-Sea,GB,Europe/London
33.4425,129.96972,Karatsu,JP,Asia/Tokyo
12.97389,123.99333,Sorsogon,PH,Asia/Manila
43.4125,23.225,Montana,BG,Europe/Sofia
45.44694,8.62118,Novara,IT,Europe/Rome
48.98333,2.61667,Mitry-Mory,FR,Europe/Paris
45.16024,-93.08883,Lino Lakes,US,America/Chicago
41.8542,-87.66561,Lower West Side,US,America/Chicago
54.58048,16.86194,Ustka,PL,Europe/Warsaw
54.58048,16.86194,Ustka,PL,Europe/Warsaw
-1.26753,116.82887,Balikpapan,ID,Asia/Makassar
56.9083,60.8019,Beryozovsky,RU,Asia/Yekaterinburg
39.59611,27.02444,Edremit,TR,Europe/Istanbul
35.61452,-88.81395,Jackson,US,America/Chicago
6.9909,79.883,Hendala,LK,Asia/Colombo
41.20485,-8.33147,Paredes,PT,Europe/Lisbon
30.29184,71.67164,Qadirpur Ran,PK,Asia/Karachi
40.37528,28.88222,Mudanya,TR,Europe/Istanbul
3.27833,32.88667,Kitgum,UG,Africa/Kampala
28.88162,120.03308,Guli,CN,Asia/Shanghai
12.35275,121.06761,San Jose,PH,Asia/Manila
50.79205,-1.08593,Southsea,GB,Europe/London
-4.5833,15.16554,Kasangulu,CD,Africa/Kinshasa
31.84568,-102.36764,Odessa,US,America/Chicago
43.1122,12.38878,Perugia,IT,Europe/Rome
32.42067,-104.22884,Carlsbad,US,America/Denver
26.44931,91.61356,Rangia,IN,Asia/Kolkata
-31.4488,-60.93173,Esperanza,AR,America/Argentina/Cordoba
59.80917,30.38167,Shushary,RU,Europe/Moscow
41.6764,-91.58045,Coralville,US,America/Chicago
44.35056,142.45778,Nayoro,JP,Asia/Tokyo
-2.68333,33,Usagara,TZ,Africa/Dar_es_Salaam
51.82721,107.60627,Ulan-Ude,RU,Asia/Irkutsk
48.86667,2.08333,Marly-le-Roi,FR,Europe/Paris
33.08014,-83.2321,Milledgeville,US,America/New_York
45.9836,12.70038,Cordenons,IT,Europe/Rome
12.04161,75.35927,Talipparamba,IN,Asia/Kolkata
34.61667,135.6,Yao,JP,Asia/Tokyo
22.49396,-105.36369,Acaponeta,MX,America/Mazatlan
51.65333,5.2875,Vught,NL,Europe/Amsterdam
38.55632,69.01354,Vahdat,TJ,Asia/Dushanbe
16.68911,98.50893,Myawadi,MM,Asia/Yangon
40.66482,122.22833,Yingkou,CN,Asia/Shanghai
5.90702,116.10146,Donggongon,MY,Asia/Kuching
33.35283,-111.78903,Gilbert,US,America/Phoenix
13.8196,100.04427,Nakhon Pathom,TH,Asia/Bangkok
40.42386,-3.53261,San Fernando de Henares,ES,Europe/Madrid
33.08014,-83.2321,Milledgeville,US,America/New_York
-0.35817,42.54536,Kismayo,SO,Africa/Mogadishu
-4.5833,15.16554,Kasangulu,CD,Africa/Kinshasa
38.38479,-0.76773,Novelda,ES,Europe/Madrid
50.64336,7.2278,Bad Honnef,DE,Europe/Berlin
39.71734,-74.96933,Sicklerville,US,America/New_York
39.33427,-76.43941,Middle River,US,America/New_York
36.76639,3.47717,Boumerdas,DZ,Africa/Algiers
35.72917,10.58082,Msaken,TN,Africa/Tunis
30.5427,-97.54667,Hutto,US,America/Chicago
35.89972,14.51472,Valletta,MT,Europe/Malta
38.70734,-77.02303,Fort Washington,US,America/New_York
41.24255,-82.61573,Norwalk,US,America/New_York
-0.35817,42.54536,Kismayo,SO,Africa/Mogadishu
3.31332,117.59152,Tarakan,ID,Asia/Makassar
33.03699,-117.29198,Encinitas,US,America/Los_Angeles
39.96097,-75.60804,West Chester,US,America/New_York
7.62789,4.74161,Ilesa,NG,Africa/Lagos
35.64889,117.27583,Sishui,CN,Asia/Shanghai
5.30383,-1.98956,Tarkwa,GH,Africa/Accra
50.5107,18.30056,Strzelce Opolskie,PL,Europe/Warsaw
24.05979,77.40858,Leteri,IN,Asia/Kolkata
54.8421,46.5813,Alatyr‚Äô,RU,Europe/Moscow
26.67319,31.4976,Juhaynah,EG,Africa/Cairo
3.31332,117.59152,Tarakan,ID,Asia/Makassar
-1.26424,104.09701,Simpang,ID,Asia/Jakarta
32.87533,71.57118,Daud Khel,PK,Asia/Karachi
14.93333,-91.11667,Chichicastenango,GT,America/Guatemala
53.53395,33.72798,Zhukovka,RU,Europe/Moscow
42.55308,-87.93341,Pleasant Prairie,US,America/Chicago
25.6439,77.9129,Narwar,IN,Asia/Kolkata
42.7392,-84.62081,Waverly,US,America/Detroit
40.65538,-74.38987,Scotch Plains,US,America/New_York
27.52948,68.75915,Khairpur Mir‚Äôs,PK,Asia/Karachi
43.1009,-75.23266,Utica,US,America/New_York
41.29444,69.67639,Parkent,UZ,Asia/Tashkent
-22.92306,-53.13722,Loanda,BR,America/Sao_Paulo
51.40944,46.04833,Privolzhskiy,RU,Europe/Saratov
18.20854,-71.10077,Santa Cruz de Barahona,DO,America/Santo_Domingo
38.96667,-0.18333,Gandia,ES,Europe/Madrid
42.8334,-80.38297,Norfolk County,CA,America/Toronto
37.65181,120.33063,Longgang,CN,Asia/Shanghai
40.57788,-73.95958,Brighton Beach,US,America/New_York
3.31332,117.59152,Tarakan,ID,Asia/Makassar
37.19723,122.05228,Tianfu,CN,Asia/Shanghai
39.43534,-84.20299,Lebanon,US,America/New_York
50.9803,11.32903,Weimar,DE,Europe/Berlin
0.76755,24.43973,Yangambi,CD,Africa/Lubumbashi
41.91886,8.73812,Ajaccio,FR,Europe/Paris
13.70167,-89.10944,Ilopango,SV,America/El_Salvador
14.14989,121.3152,Calauan,PH,Asia/Manila
50.74497,3.20639,Mouscron,BE,Europe/Brussels
51.65,-0.2,Barnet,GB,Europe/London
37.30553,120.82747,Zhuangyuan,CN,Asia/Shanghai
53.53395,33.72798,Zhukovka,RU,Europe/Moscow
35.815,139.6853,Shimotoda,JP,Asia/Tokyo
10.98778,-74.95472,Puerto Colombia,CO,America/Bogota
51.21667,6.26667,Schwalmtal,DE,Europe/Berlin
39.96348,-4.83076,Talavera de la Reina,ES,Europe/Madrid
33.44872,-86.78777,Vestavia Hills,US,America/Chicago
37.35813,-6.03731,San Juan de Aznalfarache,ES,Europe/Madrid
36.27462,4.85668,Bordj Zemoura,DZ,Africa/Algiers
40.63316,-74.13653,Port Richmond,US,America/New_York
55.75556,60.70278,Ozersk,RU,Asia/Yekaterinburg
13.51825,99.95469,Damnoen Saduak,TH,Asia/Bangkok
-11.94306,-76.70944,Chosica,PE,America/Lima
-8.05389,-34.88111,Recife,BR,America/Recife
-21.41222,-42.19667,Miracema,BR,America/Sao_Paulo
45.44694,8.62118,Novara,IT,Europe/Rome
43.67681,4.63031,Arles,FR,Europe/Paris
33.7207,-116.21677,Indio,US,America/Los_Angeles
-4.26613,15.28318,Brazzaville,CG,Africa/Brazzaville
40.2737,-76.88442,Harrisburg,US,America/New_York
34.8825,128.62667,Sinhyeon,KR,Asia/Seoul
21.53889,71.57737,Gariadhar,IN,Asia/Kolkata
19.8173,-97.35992,Teziutlan,MX,America/Mexico_City
45.43341,-73.86586,Beaconsfield,CA,America/Toronto
33.08014,-83.2321,Milledgeville,US,America/New_York
27.0174,49.62251,Al Jubayl,SA,Asia/Riyadh
3.11988,35.59642,Lodwar,KE,Africa/Nairobi
53.51684,-113.3187,Sherwood Park,CA,America/Edmonton
30.75545,20.22625,Ajdabiya,LY,Africa/Tripoli
13.44581,101.18445,Phanat Nikhom,TH,Asia/Bangkok
9.6531,124.3697,Jagna,PH,Asia/Manila
14.67751,-60.94228,Le Robert,MQ,America/Martinique
34.56861,105.89333,Beidao,CN,Asia/Shanghai
-23.44361,-51.87389,Sarandi,BR,America/Sao_Paulo
36.06386,4.62744,El Achir,DZ,Africa/Algiers
53.38333,-0.76667,Gainsborough,GB,Europe/London
-1.9487,30.4347,Rwamagana,RW,Africa/Kigali
38.07789,13.44275,Villabate,IT,Europe/Rome
42.28639,18.84,Budva,ME,Europe/Podgorica
26.32293,91.00632,Barpeta,IN,Asia/Kolkata
38.70734,-77.02303,Fort Washington,US,America/New_York
38.10558,-1.86343,Caravaca,ES,Europe/Madrid
53.81667,-3.05,Blackpool,GB,Europe/London
43.11667,1.6,Pamiers,FR,Europe/Paris
7.83389,-72.47417,Villa del Rosario,CO,America/Bogota
5.6561,-75.87877,Andes,CO,America/Bogota
3.11988,35.59642,Lodwar,KE,Africa/Nairobi
38.54491,-121.74052,Davis,US,America/Los_Angeles
52.68333,0.93333,East Dereham,GB,Europe/London
42.62833,20.89389,Glogovac,XK,Europe/Belgrade
48.52961,12.16179,Landshut,DE,Europe/Berlin
-21.44236,27.46153,Tonota,BW,Africa/Gaborone
44.99012,-123.02621,Keizer,US,America/Los_Angeles
45.49428,-122.86705,Aloha,US,America/Los_Angeles
38.96372,-76.99081,Chillum,US,America/New_York
10.20898,123.758,Naga,PH,Asia/Manila
40.24537,-75.64963,Pottstown,US,America/New_York
34.21639,-119.0376,Camarillo,US,America/Los_Angeles
36.19278,117.65694,Laiwu,CN,Asia/Shanghai
32.50611,120.14278,Jiangyan,CN,Asia/Shanghai
9.15093,-79.62098,Chilibre,PA,America/Panama
34.25628,-78.04471,Leland,US,America/New_York
38.54491,-121.74052,Davis,US,America/Los_Angeles
34.15429,3.50309,Messaad,DZ,Africa/Algiers
51.35084,-1.99421,Devizes,GB,Europe/London
3.11988,35.59642,Lodwar,KE,Africa/Nairobi
32.44874,-99.73314,Abilene,US,America/Chicago
19.8173,-97.35992,Teziutlan,MX,America/Mexico_City
33.50921,-111.89903,Scottsdale,US,America/Phoenix
45.51667,4.86667,Vienne,FR,Europe/Paris
51.64316,-0.36053,Bushey,GB,Europe/London
54.58048,16.86194,Ustka,PL,Europe/Warsaw
40.72371,-73.95097,Greenpoint,US,America/New_York
3.3285,99.1625,Tebingtinggi,ID,Asia/Jakarta
12.18441,18.69303,Mongo,TD,Africa/Ndjamena
-3.14306,-58.44417,Itacoatiara,BR,America/Manaus
40.57788,-73.95958,Brighton Beach,US,America/New_York
41.15376,-87.88754,Bourbonnais,US,America/Chicago
-23.85972,35.34722,Maxixe,MZ,Africa/Maputo
23.15678,-81.24441,Varadero,CU,America/Havana
48.77275,5.16108,Bar-le-Duc,FR,Europe/Paris
43.54072,-116.56346,Nampa,US,America/Boise
39.59611,27.02444,Edremit,TR,Europe/Istanbul
47.4943,-122.24092,Bryn Mawr-Skyway,US,America/Los_Angeles
31.76212,-95.63079,Palestine,US,America/Chicago
49.5099,6.74549,Losheim,DE,Europe/Berlin
25.66795,85.83636,Dalsingh Sarai,IN,Asia/Kolkata
42.62833,20.89389,Glogovac,XK,Europe/Belgrade
44.35056,142.45778,Nayoro,JP,Asia/Tokyo
33.45122,-86.99666,Hueytown,US,America/Chicago
-2.13404,-79.59415,Milagro,EC,America/Guayaquil
25.92493,73.66633,Sojat,IN,Asia/Kolkata
44.73941,-93.12577,Rosemount,US,America/Chicago
-8.66667,-35.71667,Catende,BR,America/Recife
23.5654,119.58627,Magong,TW,Asia/Taipei
22.37066,114.10479,Tsuen Wan,HK,Asia/Hong_Kong
53.19146,-2.52398,Winsford,GB,Europe/London
41.9001,-71.08977,Taunton,US,America/New_York
36.75965,137.36215,Namerikawa,JP,Asia/Tokyo
27.0174,49.62251,Al Jubayl,SA,Asia/Riyadh
10.31672,123.89071,Cebu City,PH,Asia/Manila
43.86682,-79.2663,Markham,CA,America/Toronto
40.34912,-111.90466,Saratoga Springs,US,America/Denver
30.76468,74.12286,Kanganpur,PK,Asia/Karachi
50.74497,3.20639,Mouscron,BE,Europe/Brussels
27.76056,-15.58602,Maspalomas,ES,Atlantic/Canary
26.18924,-98.15529,San Juan,US,America/Chicago
-4.26613,15.28318,Brazzaville,CG,Africa/Brazzaville
-0.71667,-48.52333,Soure,BR,America/Belem
31.78336,35.23388,East Jerusalem,PS,Asia/Hebron
16.0567,103.65309,Roi Et,TH,Asia/Bangkok
7.62789,4.74161,Ilesa,NG,Africa/Lagos
52.21099,7.02238,Gronau,DE,Europe/Berlin
-11.78333,19.91667,Luena,AO,Africa/Luanda
16.06213,76.0586,Hungund,IN,Asia/Kolkata
33.72255,-116.37697,Palm Desert,US,America/Los_Angeles
34.61667,135.6,Yao,JP,Asia/Tokyo
23.9028,89.11943,Kushtia,BD,Asia/Dhaka
-19.7625,-44.31389,Esmeraldas,BR,America/Sao_Paulo
-12.91667,-39.25,Muritiba,BR,America/Bahia
51.35084,-1.99421,Devizes,GB,Europe/London
40.64621,-73.97069,Kensington,US,America/New_York
12.1277,78.15794,Dharmapuri,IN,Asia/Kolkata
39.32011,-76.51552,Rosedale,US,America/New_York
31.84568,-102.36764,Odessa,US,America/Chicago
9.3337,122.8637,Santa Catalina,PH,Asia/Manila
44.73941,-93.12577,Rosemount,US,America/Chicago
27.76056,-15.58602,Maspalomas,ES,Atlantic/Canary
26.2173,-80.22588,North Lauderdale,US,America/New_York
50.86079,17.4674,Brzeg,PL,Europe/Warsaw
16.68911,98.50893,Myawadi,MM,Asia/Yangon
32.50611,120.14278,Jiangyan,CN,Asia/Shanghai
41.84364,-87.71255,South Lawndale,US,America/Chicago
-1.6,103.61667,Jambi City,ID,Asia/Jakarta
10.15031,-73.9614,El Copey,CO,America/Bogota
39.57582,-105.11221,Ken Caryl,US,America/Denver
5.30383,-1.98956,Tarkwa,GH,Africa/Accra
40.66482,122.22833,Yingkou,CN,Asia/Shanghai
28.15112,-82.46148,Lutz,US,America/New_York
50.56149,4.69889,Gembloux,BE,Europe/Brussels
41.27621,-72.86843,East Haven,US,America/New_York
37.60876,-77.37331,Mechanicsville,US,America/New_York
13.48082,-86.58208,Somoto,NI,America/Managua
26.9423,68.11759,Tharu Shah,PK,Asia/Karachi
37.49223,15.07041,Catania,IT,Europe/Rome
11.8659,34.3869,Ar Ruseris,SD,Africa/Khartoum
50.88506,4.07601,Denderleeuw,BE,Europe/Brussels
52.31333,6.92917,Oldenzaal,NL,Europe/Amsterdam
40.65538,-74.38987,Scotch Plains,US,America/New_York
11.15583,42.7125,'Ali Sabieh,DJ,Africa/Djibouti
51.42708,-0.91979,Lower Earley,GB,Europe/London
25.66795,85.83636,Dalsingh Sarai,IN,Asia/Kolkata
54.03876,43.91385,Kovylkino,RU,Europe/Moscow
35.06667,135.21667,Sasayama,JP,Asia/Tokyo
35.85,117.7,Dongdu,CN,Asia/Shanghai
43.41949,77.0202,Otegen Batyra,KZ,Asia/Almaty
19.21667,73.08333,Dombivli,IN,Asia/Kolkata
38.06084,-97.92977,Hutchinson,US,America/Chicago
28.71271,77.656,Pilkhua,IN,Asia/Kolkata
34.61667,135.6,Yao,JP,Asia/Tokyo
41.80753,-87.65644,New City,US,America/Chicago
25.87498,86.59611,Saharsa,IN,Asia/Kolkata
-11.94306,-76.70944,Chosica,PE,America/Lima
23.5654,119.58627,Magong,TW,Asia/Taipei
15.73628,75.96976,Gajendragarh,IN,Asia/Kolkata
39.59611,27.02444,Edremit,TR,Europe/Istanbul
-7.81667,112.01667,Kediri,ID,Asia/Jakarta
0.51667,101.44167,Pekanbaru,ID,Asia/Jakarta
28.54944,-81.77285,Clermont,US,America/New_York
47.90771,106.88324,Ulan Bator,MN,Asia/Ulaanbaatar
4.88441,101.96857,Gua Musang,MY,Asia/Kuala_Lumpur
3.7278,98.6738,Labuhan Deli,ID,Asia/Jakarta
29.38242,70.91106,Alipur,PK,Asia/Karachi
34.75856,136.13108,Ueno-ebisumachi,JP,Asia/Tokyo
-4.24444,-42.29444,Barras,BR,America/Fortaleza
46.75451,33.34864,Nova Kakhovka,UA,Europe/Kiev
48.77275,5.16108,Bar-le-Duc,FR,Europe/Paris
37.08819,-8.2503,Albufeira,PT,Europe/Lisbon
40.72371,-73.95097,Greenpoint,US,America/New_York
65.93381,111.4834,Aykhal,RU,Asia/Yakutsk
10.12268,77.54372,Periyakulam,IN,Asia/Kolkata
13.65805,102.56365,Paoy Paet,KH,Asia/Phnom_Penh
-1.26424,104.09701,Simpang,ID,Asia/Jakarta
51.40148,-1.32471,Newbury,GB,Europe/London
14.53767,46.83187,Ataq,YE,Asia/Aden
41.8542,-87.66561,Lower West Side,US,America/Chicago
51.21667,6.26667,Schwalmtal,DE,Europe/Berlin
11.15583,42.7125,'Ali Sabieh,DJ,Africa/Djibouti
43.11667,1.6,Pamiers,FR,Europe/Paris
-4.26613,15.28318,Brazzaville,CG,Africa/Brazzaville
46.09273,-88.64235,Iron River,US,America/Menominee
44.85278,65.50917,Kyzylorda,KZ,Asia/Qyzylorda
26.44931,91.61356,Rangia,IN,Asia/Kolkata
37.65639,126.835,Goyang-si,KR,Asia/Seoul
53.43333,-7.95,Athlone,IE,Europe/Dublin
17.06542,-96.72365,Oaxaca,MX,America/Mexico_City
-44.39672,171.25364,Timaru,NZ,Pacific/Auckland
48,-4.1,Quimper,FR,Europe/Paris
53.38333,-0.76667,Gainsborough,GB,Europe/London
25.13915,73.06784,Sheoganj,IN,Asia/Kolkata
11.50526,77.23826,Sathyamangalam,IN,Asia/Kolkata
35.82756,137.95378,Ina,JP,Asia/Tokyo
43.96222,43.63417,Novopavlovsk,RU,Europe/Moscow
-20.87306,-48.29694,Viradouro,BR,America/Sao_Paulo
53.19146,-2.52398,Winsford,GB,Europe/London
56.03361,35.96944,Volokolamsk,RU,Europe/Moscow
12.18441,18.69303,Mongo,TD,Africa/Ndjamena
45.9836,12.70038,Cordenons,IT,Europe/Rome
14.62578,121.12251,Antipolo,PH,Asia/Manila
-22.97056,-46.99583,Valinhos,BR,America/Sao_Paulo
45.99194,29.41824,Artsyz,UA,Europe/Kiev
-7.81667,112.01667,Kediri,ID,Asia/Jakarta
55.25,24.75,Ukmerge,LT,Europe/Vilnius
11.12018,76.11996,Manjeri,IN,Asia/Kolkata
-4.42472,-41.45861,Pedro II,BR,America/Fortaleza
51.88333,8.51667,Verl,DE,Europe/Berlin
-0.71667,-48.52333,Soure,BR,America/Belem
25.66795,85.83636,Dalsingh Sarai,IN,Asia/Kolkata
10.13361,124.84472,Maasin,PH,Asia/Manila
36.06386,4.62744,El Achir,DZ,Africa/Algiers
48.98333,2.61667,Mitry-Mory,FR,Europe/Paris
41.92361,20.91361,Bogovinje,MK,Europe/Skopje
10.29085,105.75635,Sa Dec,VN,Asia/Ho_Chi_Minh
48.35693,10.98461,Friedberg,DE,Europe/Berlin
34.85,117.33333,Taozhuang,CN,Asia/Shanghai
33.98154,-81.23621,Lexington,US,America/New_York
44.80477,-0.59543,Talence,FR,Europe/Paris
6.95194,121.96361,Recodo,PH,Asia/Manila
34.25,135.31667,Iwade,JP,Asia/Tokyo
42.4251,-71.06616,Malden,US,America/New_York
50.82709,6.9747,Wesseling,DE,Europe/Berlin
25.92127,86.79271,Madhipura,IN,Asia/Kolkata
33.35283,-111.78903,Gilbert,US,America/Phoenix
6.46838,-73.26022,Socorro,CO,America/Bogota
52.86147,9.5926,Walsrode,DE,Europe/Berlin
23.07492,88.28637,Pandua,IN,Asia/Kolkata
-7.0981,109.3243,Randudongkal,ID,Asia/Jakarta
25.92493,73.66633,Sojat,IN,Asia/Kolkata
7.6,4.18333,Olupona,NG,Africa/Lagos
10.7375,122.9666,Talisay,PH,Asia/Manila
32.5007,-94.74049,Longview,US,America/Chicago
37.65181,120.33063,Longgang,CN,Asia/Shanghai
37.35813,-6.03731,San Juan de Aznalfarache,ES,Europe/Madrid
14.66,120.56528,Pilar,PH,Asia/Manila
35.89972,14.51472,Valletta,MT,Europe/Malta
25.87498,86.59611,Saharsa,IN,Asia/Kolkata
35.95664,36.7138,Binnish,SY,Asia/Damascus
-4.83,29.65806,Mwandiga,TZ,Africa/Dar_es_Salaam
42.62833,20.89389,Glogovac,XK,Europe/Belgrade
41.29444,69.67639,Parkent,UZ,Asia/Tashkent
58.63667,59.80222,Lesnoy,RU,Asia/Yekaterinburg
-33.75881,150.99292,Baulkham Hills,AU,Australia/Sydney
24.41288,76.56719,Aklera,IN,Asia/Kolkata
42.67164,14.01481,Roseto degli Abruzzi,IT,Europe/Rome
50.72043,11.34046,Rudolstadt,DE,Europe/Berlin
34.81667,137.4,Toyokawa,JP,Asia/Tokyo
48.77275,5.16108,Bar-le-Duc,FR,Europe/Paris
27.92333,118.53333,Pucheng,CN,Asia/Shanghai
41.82143,41.77921,Kobuleti,GE,Asia/Tbilisi
40.81,-73.9625,Morningside Heights,US,America/New_York
12.95629,78.27539,Robertsonpet,IN,Asia/Kolkata
43.91452,-69.96533,Brunswick,US,America/New_York
4.2475,9.00472,Idenao,CM,Africa/Douala
36.20389,127.08472,Nonsan,KR,Asia/Seoul
8.88649,2.59753,Tchaourou,BJ,Africa/Porto-Novo
45.99194,29.41824,Artsyz,UA,Europe/Kiev
33.95015,-118.03917,South Whittier,US,America/Los_Angeles
-30.60106,-71.19901,Ovalle,CL,America/Santiago
38.10558,-1.86343,Caravaca,ES,Europe/Madrid
-11.78333,19.91667,Luena,AO,Africa/Luanda
26.9423,68.11759,Tharu Shah,PK,Asia/Karachi
41.9001,-71.08977,Taunton,US,America/New_York
31.20176,29.91582,Alexandria,EG,Africa/Cairo
45.4473,-73.75335,Dorval,CA,America/Toronto
36.82167,128.63083,Eisen,KR,Asia/Seoul
50.75,2.25,Saint-Omer,FR,Europe/Paris
-8.99167,125.21972,Maliana,TL,Asia/Dili
37.73604,-120.93549,Riverbank,US,America/Los_Angeles
40.87329,14.43865,Somma Vesuviana,IT,Europe/Rome
-8.73508,24.99798,Kamina,CD,Africa/Lubumbashi
45.51667,4.86667,Vienne,FR,Europe/Paris
14.95472,120.89694,Baliuag,PH,Asia/Manila
41.80753,-87.65644,New City,US,America/Chicago
39.32288,-76.72803,Woodlawn,US,America/New_York
15.48131,-86.57415,Olanchito,HN,America/Tegucigalpa
3.7278,98.6738,Labuhan Deli,ID,Asia/Jakarta
61.72744,17.10558,Hudiksvall,SE,Europe/Stockholm
31.39547,34.75699,Rahat,IL,Asia/Jerusalem
44.31771,9.32241,Chiavari,IT,Europe/Rome
58.7002,59.4839,Kachkanar,RU,Asia/Yekaterinburg
-7.60361,37.00438,Kidodi,TZ,Africa/Dar_es_Salaam
52.14,5.58472,Barneveld,NL,Europe/Amsterdam
50.23271,12.87117,Karlovy Vary,CZ,Europe/Prague
45.73333,4.91667,Bron,FR,Europe/Paris
44.80477,-0.59543,Talence,FR,Europe/Paris
35.30889,139.55028,Kamakura,JP,Asia/Tokyo
38.55632,69.01354,Vahdat,TJ,Asia/Dushanbe
-7.57897,112.23109,Diwek,ID,Asia/Jakarta
43.2907,5.4384,Marseille 11,FR,Europe/Paris
34.25628,-78.04471,Leland,US,America/New_York
41.54566,-71.29144,Middletown,US,America/New_York
45.44694,8.62118,Novara,IT,Europe/Rome
49.13645,8.91229,Eppingen,DE,Europe/Berlin
53.49389,-1.29243,Mexborough,GB,Europe/London
35.8,137.23333,Gero,JP,Asia/Tokyo
40.72586,8.55552,Sassari,IT,Europe/Rome
-6.25,38.66667,Mvomero,TZ,Africa/Dar_es_Salaam
54.90083,38.07083,Stupino,RU,Europe/Moscow
29.53885,-95.44744,Fresno,US,America/Chicago
54.48147,53.47103,Oktyabr‚Äôskiy,RU,Asia/Yekaterinburg
50.75767,-1.5443,Lymington,GB,Europe/London
5.4709,100.24529,Batu Feringgi,MY,Asia/Kuala_Lumpur
35.20889,111.73861,Changzhi,CN,Asia/Shanghai
61.78491,34.34691,Petrozavodsk,RU,Europe/Moscow
-33.75881,150.99292,Baulkham Hills,AU,Australia/Sydney
44.75874,19.21437,Bijeljina,BA,Europe/Sarajevo
-7.81667,112.01667,Kediri,ID,Asia/Jakarta
40.81,-73.9625,Morningside Heights,US,America/New_York
30.76468,74.12286,Kanganpur,PK,Asia/Karachi
-22.45667,-47.53028,Santa Gertrudes,BR,America/Sao_Paulo
35.50056,117.63083,Pingyi,CN,Asia/Shanghai
25.92127,86.79271,Madhipura,IN,Asia/Kolkata
33.43443,-5.22126,Azrou,MA,Africa/Casablanca
5.20856,-74.73584,Honda,CO,America/Bogota
43.11667,1.6,Pamiers,FR,Europe/Paris
26.32293,91.00632,Barpeta,IN,Asia/Kolkata
-26.22861,-52.67056,Pato Branco,BR,America/Sao_Paulo
29.69221,72.54566,Hasilpur,PK,Asia/Karachi
55.64776,38.02486,Malakhovka,RU,Europe/Moscow
12.74482,4.52514,Argungu,NG,Africa/Lagos
45.51667,4.86667,Vienne,FR,Europe/Paris
37.13548,-3.67029,Las Gabias,ES,Europe/Madrid
24.28859,116.11768,Meizhou,CN,Asia/Shanghai
-24.19436,29.00974,Mokopane,ZA,Africa/Johannesburg
25.13915,73.06784,Sheoganj,IN,Asia/Kolkata
44.73941,-93.12577,Rosemount,US,America/Chicago
-7.73379,113.69785,Besuki,ID,Asia/Jakarta
46.1351,-60.1831,Sydney,CA,America/Glace_Bay
50.20528,19.27498,Jaworzno,PL,Europe/Warsaw
30.24706,115.04814,Huangshi,CN,Asia/Shanghai
50.09019,8.4493,Hofheim am Taunus,DE,Europe/Berlin
35.6803,51.0193,Shahre Jadide Andisheh,IR,Asia/Tehran
44.97639,19.61222,Sremska Mitrovica,RS,Europe/Belgrade
-31.95224,115.8614,Perth,AU,Australia/Perth
43.86682,-79.2663,Markham,CA,America/Toronto
21.46527,83.97573,Sambalpur,IN,Asia/Kolkata
40.24537,-75.64963,Pottstown,US,America/New_York
23.1959,86.51499,Kenda,IN,Asia/Kolkata
48.98693,2.44892,Gonesse,FR,Europe/Paris
31.12406,-97.90308,Copperas Cove,US,America/Chicago
28.15112,-82.46148,Lutz,US,America/New_York
46.67535,5.55575,Lons-le-Saunier,FR,Europe/Paris
44.99012,-123.02621,Keizer,US,America/Los_Angeles
48.90982,2.45012,Bobigny,FR,Europe/Paris
29.69221,72.54566,Hasilpur,PK,Asia/Karachi
29.38242,70.91106,Alipur,PK,Asia/Karachi
46.09273,-88.64235,Iron River,US,America/Menominee
-34.64167,-60.47389,Chacabuco,AR,America/Argentina/Buenos_Aires
48.73218,11.18709,Neuburg an der Donau,DE,Europe/Berlin
4.2475,9.00472,Idenao,CM,Africa/Douala
42.8334,-80.38297,Norfolk County,CA,America/Toronto
42.52787,-70.92866,Peabody,US,America/New_York
38.17492,-122.2608,American Canyon,US,America/Los_Angeles
42.8139,-1.64295,Segundo Ensanche,ES,Europe/Madrid
50.76306,-1.29772,Cowes,GB,Europe/London
-15.21194,-75.11028,Minas de Marcona,PE,America/Lima
50.82882,-0.32247,Lancing,GB,Europe/London
20.28527,-103.42897,Jocotepec,MX,America/Mexico_City
44.80477,-0.59543,Talence,FR,Europe/Paris
8.88988,-79.62603,Veracruz,PA,America/Panama
54.52156,9.5586,Schleswig,DE,Europe/Berlin
34.5624,38.28402,Tadmur,SY,Asia/Damascus
50.06,43.2379,Mikhaylovka,RU,Europe/Volgograd
11.15583,42.7125,'Ali Sabieh,DJ,Africa/Djibouti
-25.54073,152.70493,Maryborough,AU,Australia/Brisbane
41.66394,-83.55521,Toledo,US,America/New_York
60.18427,24.95034,Kallio,FI,Europe/Helsinki
14.93333,-91.11667,Chichicastenango,GT,America/Guatemala
7.83389,-72.47417,Villa del Rosario,CO,America/Bogota
50.50301,13.63617,Most,CZ,Europe/Prague
47.64995,-117.23991,Opportunity,US,America/Los_Angeles
27.92333,118.53333,Pucheng,CN,Asia/Shanghai
38.10558,-1.86343,Caravaca,ES,Europe/Madrid
35.05266,-78.87836,Fayetteville,US,America/New_York
42.22718,14.39024,Lanciano,IT,Europe/Rome
-17.73648,168.31366,Port-Vila,VU,Pacific/Efate
46.67535,5.55575,Lons-le-Saunier,FR,Europe/Paris
46.75451,33.34864,Nova Kakhovka,UA,Europe/Kiev
11.86064,9.0027,Gaya,NG,Africa/Lagos
-23.7975,-48.59278,Buri,BR,America/Sao_Paulo
40.93121,-73.89875,Yonkers,US,America/New_York
14.14989,121.3152,Calauan,PH,Asia/Manila
43.78956,7.60872,Ventimiglia,IT,Europe/Rome
45.51667,4.86667,Vienne,FR,Europe/Paris
36.64852,51.49621,Nowshahr,IR,Asia/Tehran
14.64056,104.64992,Kantharalak,TH,Asia/Bangkok
22.75218,72.68533,Kheda,IN,Asia/Kolkata
34.81667,137.4,Toyokawa,JP,Asia/Tokyo
34.9,137.5,Shinshiro,JP,Asia/Tokyo
48.07667,8.64409,Trossingen,DE,Europe/Berlin
-27.50578,153.10236,Carindale,AU,Australia/Brisbane
49.88307,-119.48568,Kelowna,CA,America/Vancouver
34.09668,-117.71978,Claremont,US,America/Los_Angeles
56.85836,35.90057,Tver,RU,Europe/Moscow
47.46657,84.87144,Zaysan,KZ,Asia/Almaty
14.37395,100.48528,Bang Ban,TH,Asia/Bangkok
37.16911,10.03478,El Alia,TN,Africa/Tunis
36.33011,138.89585,Annaka,JP,Asia/Tokyo
7.62789,4.74161,Ilesa,NG,Africa/Lagos
32.05971,34.8732,Ganei Tikva,IL,Asia/Jerusalem
40.98894,28.67582,Yakuplu,TR,Europe/Istanbul
43.11667,1.6,Pamiers,FR,Europe/Paris
48.78232,9.17702,Stuttgart,DE,Europe/Berlin
40.78206,72.34424,Andijon,UZ,Asia/Tashkent
51.21667,6.26667,Schwalmtal,DE,Europe/Berlin
49.13645,8.91229,Eppingen,DE,Europe/Berlin
26.32293,91.00632,Barpeta,IN,Asia/Kolkata
45.40008,-73.58248,Sainte-Catherine,CA,America/Toronto
40.2737,-76.88442,Harrisburg,US,America/New_York
38.38479,-0.76773,Novelda,ES,Europe/Madrid
36.72544,3.55665,Thenia,DZ,Africa/Algiers
65.93381,111.4834,Aykhal,RU,Asia/Yakutsk
10.10649,76.35484,Alwaye,IN,Asia/Kolkata
16.06213,76.0586,Hungund,IN,Asia/Kolkata
53.6052,10.03988,Barmbek-Nord,DE,Europe/Berlin
-3.5403,118.9707,Majene,ID,Asia/Makassar
37.65639,126.835,Goyang-si,KR,Asia/Seoul
65.84811,24.14662,Tornio,FI,Europe/Helsinki
39.43534,-84.20299,Lebanon,US,America/New_York
37.51803,15.00913,Misterbianco,IT,Europe/Rome
45.53929,-122.38731,Troutdale,US,America/Los_Angeles
-20.25333,-43.80139,Itabirito,BR,America/Sao_Paulo
53.69786,-2.68758,Leyland,GB,Europe/London
-3.74912,-73.25383,Iquitos,PE,America/Lima
51.30001,13.10984,Oschatz,DE,Europe/Berlin
-23.7975,-48.59278,Buri,BR,America/Sao_Paulo
13.8196,100.04427,Nakhon Pathom,TH,Asia/Bangkok
26.9423,68.11759,Tharu Shah,PK,Asia/Karachi
52.21099,7.02238,Gronau,DE,Europe/Berlin
14.66,120.56528,Pilar,PH,Asia/Manila
40.11583,67.84222,Jizzax,UZ,Asia/Samarkand
52.61131,13.31783,Hermsdorf,DE,Europe/Berlin
54.52156,9.5586,Schleswig,DE,Europe/Berlin
32.44874,-99.73314,Abilene,US,America/Chicago
-21.98333,16.91667,Okahandja,NA,Africa/Windhoek
-7.01833,107.60389,Pameungpeuk,ID,Asia/Jakarta
-21.42917,-45.94722,Alfenas,BR,America/Sao_Paulo
18.42745,-67.15407,Aguadilla,PR,America/Puerto_Rico
43.54072,-116.56346,Nampa,US,America/Boise
3.7278,98.6738,Labuhan Deli,ID,Asia/Jakarta
39.22493,42.85693,Patnos,TR,Europe/Istanbul
9.82564,78.25795,Tiruppuvanam,IN,Asia/Kolkata
-21.98333,16.91667,Okahandja,NA,Africa/Windhoek
43.61062,-72.97261,Rutland,US,America/New_York
61.72744,17.10558,Hudiksvall,SE,Europe/Stockholm
42.93369,-72.27814,Keene,US,America/New_York
52.48173,-2.12139,Brierley Hill,GB,Europe/London
39.08367,-84.50855,Covington,US,America/New_York
37.56667,140.11667,Inawashiro,JP,Asia/Tokyo
12.1277,78.15794,Dharmapuri,IN,Asia/Kolkata
4.02219,101.02083,Teluk Intan,MY,Asia/Kuala_Lumpur
37.35813,-6.03731,San Juan de Aznalfarache,ES,Europe/Madrid
50.06,43.2379,Mikhaylovka,RU,Europe/Volgograd
45.16024,-93.08883,Lino Lakes,US,America/Chicago
45.40008,-73.58248,Sainte-Catherine,CA,America/Toronto
36.24624,139.07204,Fujioka,JP,Asia/Tokyo
14.93333,-91.11667,Chichicastenango,GT,America/Guatemala
22.75218,72.68533,Kheda,IN,Asia/Kolkata
10.10649,76.35484,Alwaye,IN,Asia/Kolkata
-8.28333,-35.03333,Cabo,BR,America/Recife
-24.19436,29.00974,Mokopane,ZA,Africa/Johannesburg
9.57046,76.32756,Kalavoor,IN,Asia/Kolkata
8.88649,2.59753,Tchaourou,BJ,Africa/Porto-Novo
33.95015,-118.03917,South Whittier,US,America/Los_Angeles
48.35149,8.96317,Hechingen,DE,Europe/Berlin
35.85,117.7,Dongdu,CN,Asia/Shanghai
53.6052,10.03988,Barmbek-Nord,DE,Europe/Berlin
53.69786,-2.68758,Leyland,GB,Europe/London
16.0438,120.4861,Manaoag,PH,Asia/Manila
48.8765,2.18967,Rueil-Malmaison,FR,Europe/Paris
42.93369,-72.27814,Keene,US,America/New_York
35.50056,117.63083,Pingyi,CN,Asia/Shanghai
-1.26753,116.82887,Balikpapan,ID,Asia/Makassar
35.82756,137.95378,Ina,JP,Asia/Tokyo
-15.21194,-75.11028,Minas de Marcona,PE,America/Lima
44.27804,-88.27205,Kaukauna,US,America/Chicago
20.28527,-103.42897,Jocotepec,MX,America/Mexico_City
42.4251,-71.06616,Malden,US,America/New_York
44.85278,65.50917,Kyzylorda,KZ,Asia/Qyzylorda
40.57788,-73.95958,Brighton Beach,US,America/New_York
23.0072,-82.4017,Boyeros,CU,America/Havana
49.5099,6.74549,Losheim,DE,Europe/Berlin
53.53395,33.72798,Zhukovka,RU,Europe/Moscow
41.0051,-73.78458,Scarsdale,US,America/New_York
21.59983,71.21169,Amreli,IN,Asia/Kolkata
-22.9,44.53333,Sakaraha,MG,Indian/Antananarivo
0.46005,34.11169,Busia,KE,Africa/Nairobi
40.49748,44.7662,Hrazdan,AM,Asia/Yerevan
36.20829,-115.98391,Pahrump,US,America/Los_Angeles
42.97086,-82.42491,Port Huron,US,America/Detroit
51.39148,-0.29825,Surbiton,GB,Europe/London
-20.87306,-48.29694,Viradouro,BR,America/Sao_Paulo
47.64995,-117.23991,Opportunity,US,America/Los_Angeles
14.95472,120.89694,Baliuag,PH,Asia/Manila
48.79325,2.29275,Fontenay-aux-Roses,FR,Europe/Paris
-22.97056,-46.99583,Valinhos,BR,America/Sao_Paulo
50.88506,4.07601,Denderleeuw,BE,Europe/Brussels
-22.57306,-47.1725,Artur Nogueira,BR,America/Sao_Paulo
36.61954,4.08282,Beni Douala,DZ,Africa/Algiers
46.1351,-60.1831,Sydney,CA,America/Glace_Bay
35.95664,36.7138,Binnish,SY,Asia/Damascus
55.39485,43.83992,Arzamas,RU,Europe/Moscow
13.8196,100.04427,Nakhon Pathom,TH,Asia/Bangkok
30.81383,75.16878,Moga,IN,Asia/Kolkata
55.25,24.75,Ukmerge,LT,Europe/Vilnius
44.73941,-93.12577,Rosemount,US,America/Chicago
42.62833,20.89389,Glogovac,XK,Europe/Belgrade
42.16808,-88.42814,Huntley,US,America/Chicago
-1.63333,13.58357,Franceville,GA,Africa/Libreville
51.12794,4.21372,Temse,BE,Europe/Brussels
48.15659,28.28489,Soroca,MD,Europe/Chisinau
18.00747,-76.78319,New Kingston,JM,America/Jamaica
0.46005,34.11169,Busia,KE,Africa/Nairobi
48,-4.1,Quimper,FR,Europe/Paris
36.27462,4.85668,Bordj Zemoura,DZ,Africa/Algiers
19.64745,-102.04897,Paracho de Verduzco,MX,America/Mexico_City
39.32011,-76.51552,Rosedale,US,America/New_York
49.03685,8.70745,Bretten,DE,Europe/Berlin
38.40917,112.73333,Xinzhou,CN,Asia/Shanghai
54.52156,9.5586,Schleswig,DE,Europe/Berlin
28.90054,-81.26367,Deltona,US,America/New_York
39.57582,-105.11221,Ken Caryl,US,America/Denver
31.64615,120.74221,Changshu City,CN,Asia/Shanghai
25.80565,68.49143,Bhit Shah,PK,Asia/Karachi
40.63316,-74.13653,Port Richmond,US,America/New_York
42.8334,-80.38297,Norfolk County,CA,America/Toronto
6.33444,124.95278,Tupi,PH,Asia/Manila
51.19139,6.51352,Korschenbroich,DE,Europe/Berlin
39.59611,27.02444,Edremit,TR,Europe/Istanbul
48.52961,12.16179,Landshut,DE,Europe/Berlin
39.96097,-75.60804,West Chester,US,America/New_York
7.06273,-1.4001,Mampong,GH,Africa/Accra
38.96667,-0.18333,Gandia,ES,Europe/Madrid
51.40148,-1.32471,Newbury,GB,Europe/London
13.70727,9.15013,Mirriah,NE,Africa/Niamey
33.50921,-111.89903,Scottsdale,US,America/Phoenix
52.31333,6.92917,Oldenzaal,NL,Europe/Amsterdam
37.71715,-122.40433,Visitacion Valley,US,America/Los_Angeles
38.07789,13.44275,Villabate,IT,Europe/Rome
42.55308,-87.93341,Pleasant Prairie,US,America/Chicago
-33.75881,150.99292,Baulkham Hills,AU,Australia/Sydney
51.47805,6.8625,Oberhausen,DE,Europe/Berlin
48.07667,8.64409,Trossingen,DE,Europe/Berlin
43.54072,-116.56346,Nampa,US,America/Boise
10.10649,76.35484,Alwaye,IN,Asia/Kolkata
42.93369,-72.27814,Keene,US,America/New_York
43.1009,-75.23266,Utica,US,America/New_York
50.06,43.2379,Mikhaylovka,RU,Europe/Volgograd
40.37528,28.88222,Mudanya,TR,Europe/Istanbul
46.51872,86.00214,Hoxtolgay,CN,Asia/Urumqi
31.28092,74.85849,Patti,IN,Asia/Kolkata
55.38752,36.73307,Naro-Fominsk,RU,Europe/Moscow
